$GPRMC,143936.384,V,3454.929,N,07502.496,W,70.2,1.36,121218,,E*41
$GPGGA,143937.384,3454.929,N,07502.496,W,0,00,,,M,,M,,*5A
$GPGLL,3454.929,N,07502.496,W,143938.384,V*35
$GPGSA,A,2,11,01,15,05,18,18,,,,,,,0.4,0.8,0.1*3E
$GPGSV,2,1,06,11,22,058,24,01,23,307,75,15,16,192,36,05,86,287,61*7C
$GPGSV,2,2,06,18,81,013,88,18,13,338,30*7D
$GPRMC,143942.384,V,3454.929,N,07502.494,W,70.0,0.93,121218,,E*4C
$GPGGA,143943.384,3454.929,N,07502.494,W,0,04,0.8,,M,,M,,*79
$GPGLL,3454.929,N,07502.494,W,143944.384,V*3C
$GPGSA,A,3,11,01,15,05,18,18,,,,,,,0.5,0.7,0.8*38
$GPGSV,2,1,06,11,13,062,72,01,85,078,48,15,56,009,26,05,83,222,64*74
$GPGSV,2,2,06,18,89,166,69,18,73,068,89*7B
$GPRMC,143948.384,V,3454.929,N,07502.492,W,22.5,0.91,121218,,E*40
$GPGGA,143949.384,3454.929,N,07502.492,W,0,04,0.7,,M,,M,,*7A
$GPGLL,3454.929,N,07502.492,W,143950.384,V*3F
$GPGSA,A,2,11,01,15,05,18,18,,,,,,,0.6,0.3,0.6*30
$GPGSV,2,1,06,11,62,218,18,01,88,262,33,15,43,001,74,05,06,048,79*7D
$GPGSV,2,2,06,18,55,030,35,18,34,094,37*74
$GPRMC,143954.384,V,3454.930,N,07502.490,W,39.7,0.81,121218,,E*4E
$GPGGA,143955.384,3454.930,N,07502.490,W,0,04,0.3,,M,,M,,*79
$GPGLL,3454.930,N,07502.490,W,143956.384,V*33
$GPGSA,A,3,11,01,15,05,18,18,,,,,,,0.9,0.2,0.1*38
$GPGSV,2,1,06,11,67,046,34,01,43,097,27,15,64,118,52,05,89,032,61*7E
$GPGSV,2,2,06,18,85,354,69,18,81,339,59*73
$GPRMC,144000.384,V,3454.930,N,07502.489,W,85.6,0.82,121218,,E*4C
$GPGGA,144001.384,3454.930,N,07502.489,W,0,04,0.2,,M,,M,,*7F
$GPGLL,3454.930,N,07502.489,W,144002.384,V*34
$GPGSA,A,2,11,01,15,05,18,18,,,,,,,0.3,0.8,0.5*3D
$GPGSV,2,1,06,11,45,070,63,01,09,221,55,15,58,078,80,05,70,311,65*7A
$GPGSV,2,2,06,18,35,027,45,18,16,214,66*7D
$GPRMC,144006.384,V,3454.931,N,07502.487,W,12.6,0.86,121218,,E*4F
$GPGGA,144007.384,3454.931,N,07502.487,W,0,04,0.8,,M,,M,,*7C
$GPGLL,3454.931,N,07502.487,W,144008.384,V*31
$GPGSA,A,2,11,01,15,05,18,18,,,,,,,0.5,0.2,0.6*32
$GPGSV,2,1,06,11,06,026,26,01,57,356,48,15,22,300,21,05,89,277,80*7F
$GPGSV,2,2,06,18,11,334,60,18,28,050,64*70
$GPRMC,144012.384,V,3454.931,N,07502.485,W,1.7,0.76,121218,,E*74
$GPGGA,144013.384,3454.931,N,07502.485,W,0,04,0.2,,M,,M,,*71
$GPGLL,3454.931,N,07502.485,W,144014.384,V*3E
$GPGSA,A,3,11,01,15,05,18,18,,,,,,,0.3,0.6,0.1*36
$GPGSV,2,1,06,11,16,162,26,01,27,160,42,15,16,150,26,05,28,350,52*72
$GPGSV,2,2,06,18,80,168,15,18,67,034,58*77
$GPRMC,144018.384,V,3454.932,N,07502.484,W,22.9,0.74,121218,,E*41
$GPGGA,144019.384,3454.932,N,07502.484,W,0,04,0.6,,M,,M,,*7D
$GPGLL,3454.932,N,07502.484,W,144020.384,V*3B
$GPGSA,A,2,11,01,15,05,18,18,,,,,,,0.6,0.6,0.8*3B
$GPGSV,2,1,06,11,08,218,82,01,50,334,34,15,86,118,30,05,76,152,28*7B
$GPGSV,2,2,06,18,05,055,27,18,37,049,59*7A
$GPRMC,144024.384,V,3454.932,N,07502.482,W,64.3,0.85,121218,,E*4E
$GPGGA,144025.384,3454.932,N,07502.482,W,0,04,0.6,,M,,M,,*74
$GPGLL,3454.932,N,07502.482,W,144026.384,V*3B
$GPGSA,A,3,11,01,15,05,18,18,,,,,,,0.5,0.8,0.6*39
$GPGSV,2,1,06,11,42,125,66,01,06,079,41,15,34,181,42,05,17,265,30*7C
$GPGSV,2,2,06,18,74,203,22,18,75,042,23*78
$GPRMC,144030.384,V,3454.933,N,07502.480,W,97.5,0.86,121218,,E*41
$GPGGA,144031.384,3454.933,N,07502.480,W,0,04,0.8,,M,,M,,*7C
$GPGLL,3454.933,N,07502.480,W,144032.384,V*3D
$GPGSA,A,3,11,01,15,05,18,18,,,,,,,0.6,0.7,0.8*3B
$GPGSV,2,1,06,11,30,198,47,01,06,235,36,15,80,132,29,05,06,174,47*7F
$GPGSV,2,2,06,18,57,079,67,18,11,079,80*74
$GPRMC,144036.384,V,3454.933,N,07502.478,W,17.2,0.88,121218,,E*41
$GPGGA,144037.384,3454.933,N,07502.478,W,0,04,0.7,,M,,M,,*72
$GPGLL,3454.933,N,07502.478,W,144038.384,V*30
$GPGSA,A,3,11,01,15,05,18,18,,,,,,,0.4,0.3,0.8*3D
$GPGSV,2,1,06,11,54,114,35,01,81,053,32,15,89,318,39,05,20,274,61*74
$GPGSV,2,2,06,18,41,218,79,18,38,209,26*7B
$GPRMC,144042.384,V,3454.934,N,07502.477,W,15.2,0.79,121218,,E*46
$GPGGA,144043.384,3454.934,N,07502.477,W,0,04,0.3,,M,,M,,*7D
$GPGLL,3454.934,N,07502.477,W,144044.384,V*33
$GPGSA,A,3,11,01,15,05,18,18,,,,,,,0.4,0.7,0.7*36
$GPGSV,2,1,06,11,64,215,25,01,48,108,32,15,06,150,24,05,57,119,77*74
$GPGSV,2,2,06,18,75,032,40,18,70,297,33*73
$GPRMC,144048.384,V,3454.934,N,07502.475,W,14.0,0.79,121218,,E*4D
$GPGGA,144049.384,3454.934,N,07502.475,W,0,04,0.7,,M,,M,,*71
$GPGLL,3454.934,N,07502.475,W,144050.384,V*34
$GPGSA,A,3,11,01,15,05,18,18,,,,,,,0.9,0.2,0.4*3D
$GPGSV,2,1,06,11,20,334,68,01,45,223,76,15,33,160,51,05,26,184,85*70
$GPGSV,2,2,06,18,79,016,89,18,38,303,28*76
$GPRMC,144054.384,V,3454.935,N,07502.473,W,50.9,0.90,121218,,E*49
$GPGGA,144055.384,3454.935,N,07502.473,W,0,04,0.2,,M,,M,,*7E
$GPGLL,3454.935,N,07502.473,W,144056.384,V*35
$GPGSA,A,2,11,01,15,05,18,18,,,,,,,0.2,0.0,0.3*32
$GPGSV,2,1,06,11,72,263,69,01,44,216,34,15,07,073,20,05,23,217,26*73
$GPGSV,2,2,06,18,65,152,50,18,12,166,86*73
$GPRMC,144100.384,V,3454.935,N,07502.471,W,19.4,0.88,121218,,E*42
$GPGGA,144101.384,3454.935,N,07502.471,W,0,04,0.0,,M,,M,,*7E
$GPGLL,3454.935,N,07502.471,W,144102.384,V*37
$GPGSA,A,2,11,01,15,05,18,18,,,,,,,0.0,0.2,0.4*35
$GPGSV,2,1,06,11,07,250,41,01,40,356,59,15,83,174,26,05,23,303,29*76
$GPGSV,2,2,06,18,13,333,75,18,63,170,52*78
$GPRMC,144106.384,V,3454.935,N,07502.470,W,24.3,0.83,121218,,E*47
$GPGGA,144107.384,3454.935,N,07502.470,W,0,04,0.2,,M,,M,,*7B
$GPGLL,3454.935,N,07502.470,W,144108.384,V*3C
$GPGSA,A,2,11,01,15,05,18,18,,,,,,,0.4,0.9,0.3*3D
$GPGSV,2,1,06,11,33,137,61,01,09,335,25,15,56,009,63,05,30,224,61*7A
$GPGSV,2,2,06,18,86,033,26,18,25,084,29*75
$GPRMC,144112.384,V,3454.936,N,07502.468,W,47.6,0.94,121218,,E*4E
$GPGGA,144113.384,3454.936,N,07502.468,W,0,04,0.9,,M,,M,,*7F
$GPGLL,3454.936,N,07502.468,W,144114.384,V*3B
$GPGSA,A,2,11,01,15,05,18,18,,,,,,,0.3,0.3,0.5*36
$GPGSV,2,1,06,11,19,001,70,01,58,082,44,15,79,095,79,05,34,080,34*71
$GPGSV,2,2,06,18,30,272,34,18,73,347,22*78
$GPRMC,144118.384,V,3454.936,N,07502.466,W,68.4,1.01,121218,,E*48
$GPGGA,144119.384,3454.936,N,07502.466,W,0,04,0.3,,M,,M,,*71
$GPGLL,3454.936,N,07502.466,W,144120.384,V*32
$GPGSA,A,2,11,01,15,05,18,18,,,,,,,0.1,0.1,0.7*34
$GPGSV,2,1,06,11,70,018,32,01,82,145,78,15,85,222,70,05,72,086,35*73
$GPGSV,2,2,06,18,51,259,59,18,81,069,18*76
$GPRMC,144124.384,V,3454.935,N,07502.464,W,13.9,1.07,121218,,E*41
$GPGGA,144125.384,3454.935,N,07502.464,W,0,04,0.1,,M,,M,,*7D
$GPGLL,3454.935,N,07502.464,W,144126.384,V*35
$GPGSA,A,2,11,01,15,05,18,18,,,,,,,0.4,0.1,1.0*37
$GPGSV,2,1,06,11,48,336,38,01,59,220,35,15,36,264,30,05,13,195,67*7F
$GPGSV,2,2,06,18,06,214,61,18,25,071,38*73
$GPRMC,144130.384,V,3454.934,N,07502.463,W,27.2,1.46,121218,,E*4B
$GPGGA,144131.384,3454.934,N,07502.463,W,0,04,0.1,,M,,M,,*7E
$GPGLL,3454.934,N,07502.463,W,144132.384,V*36
$GPGSA,A,2,11,01,15,05,18,18,,,,,,,0.4,0.4,0.9*3A
$GPGSV,2,1,06,11,37,031,70,01,48,024,87,15,14,069,88,05,83,016,54*7F
$GPGSV,2,2,06,18,70,043,52,18,58,340,40*76
$GPRMC,144136.384,V,3454.933,N,07502.461,W,41.7,1.38,121218,,E*44
$GPGGA,144137.384,3454.933,N,07502.461,W,0,04,0.4,,M,,M,,*78
$GPGLL,3454.933,N,07502.461,W,144138.384,V*39
$GPGSA,A,2,11,01,15,05,18,18,,,,,,,0.4,0.8,0.7*38
$GPGSV,2,1,06,11,54,107,40,01,42,046,39,15,80,214,83,05,36,231,51*74
$GPGSV,2,2,06,18,55,093,47,18,52,285,64*7C
$GPRMC,144142.384,V,3454.932,N,07502.460,W,50.2,1.28,121218,,E*43
$GPGGA,144143.384,3454.932,N,07502.460,W,0,04,0.8,,M,,M,,*77
$GPGLL,3454.932,N,07502.460,W,144144.384,V*32
$GPGSA,A,2,11,01,15,05,18,18,,,,,,,0.4,1.0,0.4*32
$GPGSV,2,1,06,11,55,023,37,01,38,015,81,15,15,185,52,05,61,003,50*71
$GPGSV,2,2,06,18,09,249,28,18,29,059,47*77
$GPRMC,144148.384,V,3454.932,N,07502.458,W,12.1,1.25,121218,,E*4A
$GPGGA,144149.384,3454.932,N,07502.458,W,0,04,1.0,,M,,M,,*7F
$GPGLL,3454.932,N,07502.458,W,144150.384,V*3C
$GPGSA,A,2,11,01,15,05,18,18,,,,,,,0.1,0.6,0.2*36
$GPGSV,2,1,06,11,18,292,29,01,88,145,22,15,51,261,84,05,84,127,71*74
$GPGSV,2,2,06,18,62,054,19,18,18,101,16*7C
$GPRMC,144154.384,V,3454.931,N,07502.456,W,56.8,1.19,121218,,E*4C
$GPGGA,144155.384,3454.931,N,07502.456,W,0,04,0.6,,M,,M,,*78
$GPGLL,3454.931,N,07502.456,W,144156.384,V*37
$GPGSA,A,2,11,01,15,05,18,18,,,,,,,0.4,0.8,0.1*3E
$GPGSV,2,1,06,11,35,036,67,01,18,341,17,15,10,112,50,05,76,068,70*79
$GPGSV,2,2,06,18,09,315,41,18,21,146,49*79
$GPRMC,144200.384,V,3454.930,N,07502.455,W,53.9,1.29,121218,,E*4B
$GPGGA,144201.384,3454.930,N,07502.455,W,0,04,0.8,,M,,M,,*76
$GPGLL,3454.930,N,07502.455,W,144202.384,V*37
$GPGSA,A,3,11,01,15,05,18,18,,,,,,,0.5,0.5,0.1*33
$GPGSV,2,1,06,11,81,149,67,01,07,020,55,15,72,250,79,05,87,129,80*7C
$GPGSV,2,2,06,18,68,200,62,18,70,230,29*7A
$GPRMC,144206.384,V,3454.930,N,07502.453,W,65.6,1.19,121218,,E*42
$GPGGA,144207.384,3454.930,N,07502.453,W,0,04,0.5,,M,,M,,*7B
$GPGLL,3454.930,N,07502.453,W,144208.384,V*3B
$GPGSA,A,3,11,01,15,05,18,18,,,,,,,0.2,0.2,0.6*34
$GPGSV,2,1,06,11,84,113,55,01,79,291,69,15,86,116,22,05,21,136,45*76
$GPGSV,2,2,06,18,34,112,69,18,54,313,24*73
$GPRMC,144212.384,V,3454.929,N,07502.451,W,10.6,1.27,121218,,E*42
$GPGGA,144213.384,3454.929,N,07502.451,W,0,04,0.2,,M,,M,,*73
$GPGLL,3454.929,N,07502.451,W,144214.384,V*3C
$GPGSA,A,2,11,01,15,05,18,18,,,,,,,0.9,0.3,0.4*3D
$GPGSV,2,1,06,11,12,116,43,01,23,108,85,15,64,058,84,05,56,083,28*7A
$GPGSV,2,2,06,18,12,349,72,18,49,053,21*7F
$GPRMC,144218.384,V,3454.928,N,07502.450,W,33.1,1.62,121218,,E*4F
$GPGGA,144219.384,3454.928,N,07502.450,W,0,04,0.3,,M,,M,,*78
$GPGLL,3454.928,N,07502.450,W,144220.384,V*3B
$GPGSA,A,3,11,01,15,05,18,18,,,,,,,0.1,0.9,1.0*3B
$GPGSV,2,1,06,11,16,166,52,01,66,349,44,15,80,105,86,05,64,133,16*75
$GPGSV,2,2,06,18,49,059,22,18,30,101,84*71
$GPRMC,144224.384,V,3454.926,N,07502.450,W,71.5,1.67,121218,,E*49
$GPGGA,144225.384,3454.926,N,07502.450,W,0,04,0.9,,M,,M,,*73
$GPGLL,3454.926,N,07502.450,W,144226.384,V*33
$GPGSA,A,2,11,01,15,05,18,18,,,,,,,0.1,0.6,0.7*33
$GPGSV,2,1,06,11,59,171,76,01,05,149,73,15,76,355,62,05,11,055,86*73
$GPGSV,2,2,06,18,82,250,30,18,51,047,31*74
$GPRMC,144230.384,V,3454.924,N,07502.449,W,85.7,1.76,121218,,E*4F
$GPGGA,144231.384,3454.924,N,07502.449,W,0,04,0.6,,M,,M,,*73
$GPGLL,3454.924,N,07502.449,W,144232.384,V*3C
$GPGSA,A,2,11,01,15,05,18,18,,,,,,,0.3,0.1,1.0*30
$GPGSV,2,1,06,11,31,303,75,01,73,133,58,15,25,312,50,05,33,105,71*74
$GPGSV,2,2,06,18,60,217,82,18,68,082,64*71
$GPRMC,144236.384,V,3454.923,N,07502.448,W,35.2,1.74,121218,,E*43
$GPGGA,144237.384,3454.923,N,07502.448,W,0,04,0.1,,M,,M,,*74
$GPGLL,3454.923,N,07502.448,W,144238.384,V*30
$GPGSA,A,2,11,01,15,05,18,18,,,,,,,0.5,0.6,0.2*32
$GPGSV,2,1,06,11,51,234,56,01,80,236,36,15,76,286,30,05,56,347,69*76
$GPGSV,2,2,06,18,61,303,64,18,30,003,85*77
$GPRMC,144242.384,V,3454.921,N,07502.447,W,93.1,1.66,121218,,E*41
$GPGGA,144243.384,3454.921,N,07502.447,W,0,04,0.6,,M,,M,,*7D
$GPGLL,3454.921,N,07502.447,W,144244.384,V*36
$GPGSA,A,3,11,01,15,05,18,18,,,,,,,0.0,0.6,0.3*37
$GPGSV,2,1,06,11,53,179,25,01,24,253,62,15,22,211,39,05,78,086,41*78
$GPGSV,2,2,06,18,55,279,25,18,37,132,65*73
$GPRMC,144248.384,V,3454.920,N,07502.446,W,91.2,1.58,121218,,E*47
$GPGGA,144249.384,3454.920,N,07502.446,W,0,04,0.6,,M,,M,,*77
$GPGLL,3454.920,N,07502.446,W,144250.384,V*33
$GPGSA,A,3,11,01,15,05,18,18,,,,,,,0.1,0.3,0.8*38
$GPGSV,2,1,06,11,33,199,41,01,70,197,62,15,37,092,80,05,07,023,41*70
$GPGSV,2,2,06,18,89,167,23,18,31,340,70*7D
$GPRMC,144254.384,V,3454.918,N,07502.445,W,89.0,1.58,121218,,E*49
$GPGGA,144255.384,3454.918,N,07502.445,W,0,04,0.3,,M,,M,,*77
$GPGLL,3454.918,N,07502.445,W,144256.384,V*3D
$GPGSA,A,2,11,01,15,05,18,18,,,,,,,0.5,0.1,0.1*36
$GPGSV,2,1,06,11,27,226,64,01,46,204,61,15,18,144,37,05,36,215,35*77
$GPGSV,2,2,06,18,63,354,15,18,62,305,85*73
$GPRMC,144300.384,V,3454.917,N,07502.444,W,26.7,1.62,121218,,E*4C
$GPGGA,144301.384,3454.917,N,07502.444,W,0,04,0.1,,M,,M,,*7B
$GPGLL,3454.917,N,07502.444,W,144302.384,V*33
$GPGSA,A,2,11,01,15,05,18,18,,,,,,,0.3,0.8,0.0*38
$GPGSV,2,1,06,11,69,233,83,01,62,136,44,15,21,327,40,05,38,225,50*70
$GPGSV,2,2,06,18,61,039,30,18,78,018,61*70
$GPRMC,144306.384,V,3454.915,N,07502.443,W,45.0,1.58,121218,,E*44
$GPGGA,144307.384,3454.915,N,07502.443,W,0,04,0.8,,M,,M,,*71
$GPGLL,3454.915,N,07502.443,W,144308.384,V*3C
$GPGSA,A,2,11,01,15,05,18,18,,,,,,,0.4,0.1,0.7*31
$GPGSV,2,1,06,11,54,291,45,01,58,028,71,15,37,328,53,05,68,330,84*7E
$GPGSV,2,2,06,18,20,079,35,18,68,190,41*76
$GPRMC,144312.384,V,3454.914,N,07502.442,W,72.0,1.57,121218,,E*4A
$GPGGA,144313.384,3454.914,N,07502.442,W,0,04,0.1,,M,,M,,*7D
$GPGLL,3454.914,N,07502.442,W,144314.384,V*31
$GPGSA,A,2,11,01,15,05,18,18,,,,,,,0.3,0.5,1.0*34
$GPGSV,2,1,06,11,29,272,47,01,72,157,42,15,82,219,50,05,86,152,73*7A
$GPGSV,2,2,06,18,31,206,19,18,79,277,29*76
$GPRMC,144318.384,V,3454.912,N,07502.441,W,78.5,1.65,121218,,E*4B
$GPGGA,144319.384,3454.912,N,07502.441,W,0,04,0.5,,M,,M,,*76
$GPGLL,3454.912,N,07502.441,W,144320.384,V*33
$GPGSA,A,2,11,01,15,05,18,18,,,,,,,0.6,0.9,1.0*3D
$GPGSV,2,1,06,11,72,122,17,01,49,354,62,15,89,206,73,05,55,077,89*75
$GPGSV,2,2,06,18,29,072,76,18,51,114,81*79
$GPRMC,144324.384,V,3454.911,N,07502.440,W,48.2,1.74,121218,,E*42
$GPGGA,144325.384,3454.911,N,07502.440,W,0,04,0.9,,M,,M,,*77
$GPGLL,3454.911,N,07502.440,W,144326.384,V*37
$GPGSA,A,3,11,01,15,05,18,18,,,,,,,0.6,0.7,0.9*3A
$GPGSV,2,1,06,11,06,159,27,01,52,046,25,15,67,066,27,05,50,101,15*75
$GPGSV,2,2,06,18,12,211,16,18,89,259,48*7A
$GPRMC,144330.384,V,3454.909,N,07502.440,W,68.1,1.84,121218,,E*40
$GPGGA,144331.384,3454.909,N,07502.440,W,0,04,0.7,,M,,M,,*75
$GPGLL,3454.909,N,07502.440,W,144332.384,V*3B
$GPGSA,A,3,11,01,15,05,18,18,,,,,,,0.3,0.6,0.2*35
$GPGSV,2,1,06,11,79,202,38,01,72,217,37,15,61,353,70,05,57,158,48*7B
$GPGSV,2,2,06,18,25,005,46,18,13,186,70*75
$GPRMC,144336.384,V,3454.907,N,07502.439,W,91.0,1.85,121218,,E*40
$GPGGA,144337.384,3454.907,N,07502.439,W,0,04,0.6,,M,,M,,*72
$GPGLL,3454.907,N,07502.439,W,144338.384,V*31
$GPGSA,A,3,11,01,15,05,18,18,,,,,,,0.6,0.6,0.2*30
$GPGSV,2,1,06,11,47,113,29,01,82,191,83,15,63,094,19,05,60,206,23*7C
$GPGSV,2,2,06,18,87,140,29,18,60,007,54*7E
$GPRMC,144342.384,V,3454.906,N,07502.439,W,71.8,1.75,121218,,E*4B
$GPGGA,144343.384,3454.906,N,07502.439,W,0,04,0.6,,M,,M,,*70
$GPGLL,3454.906,N,07502.439,W,144344.384,V*3B
$GPGSA,A,3,11,01,15,05,18,18,,,,,,,0.3,0.3,0.4*36
$GPGSV,2,1,06,11,84,082,51,01,77,247,71,15,65,186,53,05,62,330,75*75
$GPGSV,2,2,06,18,53,145,39,18,50,141,45*73
$GPRMC,144348.384,V,3454.904,N,07502.438,W,51.2,1.79,121218,,E*46
$GPGGA,144349.384,3454.904,N,07502.438,W,0,04,0.3,,M,,M,,*7C
$GPGLL,3454.904,N,07502.438,W,144350.384,V*3D
$GPGSA,A,2,11,01,15,05,18,18,,,,,,,0.4,0.4,0.6*35
$GPGSV,2,1,06,11,59,205,77,01,32,246,65,15,65,350,61,05,80,009,29*7D
$GPGSV,2,2,06,18,51,178,40,18,86,065,78*73
$GPRMC,144354.384,V,3454.902,N,07502.438,W,25.7,1.81,121218,,E*4C
$GPGGA,144355.384,3454.902,N,07502.438,W,0,04,0.4,,M,,M,,*70
$GPGLL,3454.902,N,07502.438,W,144356.384,V*3D
$GPGSA,A,2,11,01,15,05,18,18,,,,,,,0.3,0.5,0.9*3C
$GPGSV,2,1,06,11,51,032,69,01,18,162,59,15,24,341,75,05,65,324,78*7D
$GPGSV,2,2,06,18,66,269,87,18,11,031,45*7E
$GPRMC,144400.384,V,3454.901,N,07502.437,W,49.1,1.75,121218,,E*41
$GPGGA,144401.384,3454.901,N,07502.437,W,0,04,0.5,,M,,M,,*7B
$GPGLL,3454.901,N,07502.437,W,144402.384,V*37
$GPGSA,A,2,11,01,15,05,18,18,,,,,,,0.4,0.6,1.0*30
$GPGSV,2,1,06,11,38,017,17,01,14,215,80,15,87,243,25,05,29,095,62*72
$GPGSV,2,2,06,18,37,287,71,18,36,188,22*74
$GPRMC,144406.384,V,3454.899,N,07502.436,W,85.1,1.69,121218,,E*4B
$GPGGA,144407.384,3454.899,N,07502.436,W,0,04,0.6,,M,,M,,*7F
$GPGLL,3454.899,N,07502.436,W,144408.384,V*3C
$GPGSA,A,2,11,01,15,05,18,18,,,,,,,0.4,0.7,0.9*39
$GPGSV,2,1,06,11,42,039,74,01,28,026,68,15,15,004,73,05,86,115,86*72
$GPGSV,2,2,06,18,07,226,39,18,76,122,80*7C
$GPRMC,144412.384,V,3454.897,N,07502.435,W,98.9,1.64,121218,,E*4A
$GPGGA,144413.384,3454.897,N,07502.435,W,0,04,0.7,,M,,M,,*76
$GPGLL,3454.897,N,07502.435,W,144414.384,V*3C
$GPGSA,A,2,11,01,15,05,18,18,,,,,,,0.1,0.9,0.6*3D
$GPGSV,2,1,06,11,69,182,18,01,32,338,28,15,29,002,71,05,35,298,17*7E
$GPGSV,2,2,06,18,88,167,15,18,59,049,55*7A
$GPRMC,144418.384,V,3454.896,N,07502.434,W,79.3,1.61,121218,,E*40
$GPGGA,144419.384,3454.896,N,07502.434,W,0,04,0.9,,M,,M,,*72
$GPGLL,3454.896,N,07502.434,W,144420.384,V*3B
$GPGSA,A,3,11,01,15,05,18,18,,,,,,,0.9,0.0,0.3*38
$GPGSV,2,1,06,11,08,183,62,01,47,275,28,15,35,110,27,05,33,319,37*7F
$GPGSV,2,2,06,18,44,070,30,18,49,323,70*73
$GPRMC,144424.384,V,3454.895,N,07502.433,W,65.2,1.52,121218,,E*47
$GPGGA,144425.384,3454.895,N,07502.433,W,0,04,0.0,,M,,M,,*70
$GPGLL,3454.895,N,07502.433,W,144426.384,V*39
$GPGSA,A,3,11,01,15,05,18,18,,,,,,,0.7,0.7,0.1*33
$GPGSV,2,1,06,11,59,204,36,01,38,070,25,15,24,269,19,05,65,203,23*78
$GPGSV,2,2,06,18,79,204,55,18,50,072,85*7A
$GPRMC,144430.384,V,3454.893,N,07502.432,W,80.7,1.63,121218,,E*49
$GPGGA,144431.384,3454.893,N,07502.432,W,0,04,0.7,,M,,M,,*75
$GPGLL,3454.893,N,07502.432,W,144432.384,V*3B
$GPGSA,A,3,11,01,15,05,18,18,,,,,,,0.7,1.0,1.0*35
$GPGSV,2,1,06,11,50,297,55,01,16,267,69,15,76,333,79,05,87,128,77*76
$GPGSV,2,2,06,18,06,041,60,18,84,030,21*76
$GPRMC,144436.384,V,3454.892,N,07502.431,W,61.5,1.61,121218,,E*42
$GPGGA,144437.384,3454.892,N,07502.431,W,0,04,1.0,,M,,M,,*77
$GPGLL,3454.892,N,07502.431,W,144438.384,V*33
$GPGSA,A,2,11,01,15,05,18,18,,,,,,,0.8,0.0,0.8*33
$GPGSV,2,1,06,11,22,054,85,01,61,041,80,15,54,184,53,05,15,330,44*74
$GPGSV,2,2,06,18,69,306,17,18,30,254,88*73
$GPRMC,144442.384,V,3454.890,N,07502.430,W,37.8,1.69,121218,,E*44
$GPGGA,144443.384,3454.890,N,07502.430,W,0,04,0.0,,M,,M,,*76
$GPGLL,3454.890,N,07502.430,W,144444.384,V*3B
$GPGSA,A,2,11,01,15,05,18,18,,,,,,,1.0,1.0,0.5*36
$GPGSV,2,1,06,11,71,087,80,01,74,159,31,15,52,332,60,05,89,163,68*79
$GPGSV,2,2,06,18,13,279,73,18,86,194,81*7E
$GPRMC,144448.384,V,3454.889,N,07502.429,W,69.6,1.67,121218,,E*45
$GPGGA,144449.384,3454.889,N,07502.429,W,0,04,1.0,,M,,M,,*7D
$GPGLL,3454.889,N,07502.429,W,144450.384,V*3E
$GPGSA,A,2,11,01,15,05,18,18,,,,,,,0.1,0.4,0.3*35
$GPGSV,2,1,06,11,45,002,44,01,08,342,40,15,47,022,19,05,37,097,32*76
$GPGSV,2,2,06,18,18,177,77,18,87,104,18*74
$GPRMC,144454.384,V,3454.887,N,07502.428,W,80.1,1.75,121218,,E*44
$GPGGA,144455.384,3454.887,N,07502.428,W,0,04,0.4,,M,,M,,*7A
$GPGLL,3454.887,N,07502.428,W,144456.384,V*37
$GPGSA,A,2,11,01,15,05,18,18,,,,,,,0.3,0.3,0.2*31
$GPGSV,2,1,06,11,42,015,23,01,11,158,32,15,73,195,80,05,73,142,55*70
$GPGSV,2,2,06,18,23,091,38,18,37,323,66*7B
$GPRMC,144500.384,V,3454.885,N,07502.428,W,80.1,1.71,121218,,E*42
$GPGGA,144501.384,3454.885,N,07502.428,W,0,04,0.3,,M,,M,,*7F
$GPGLL,3454.885,N,07502.428,W,144502.384,V*35
$GPGSA,A,2,11,01,15,05,18,18,,,,,,,0.2,0.4,0.4*31
$GPGSV,2,1,06,11,43,163,44,01,48,111,62,15,47,227,82,05,66,011,79*76
$GPGSV,2,2,06,18,76,289,53,18,05,150,57*78
$GPRMC,144506.384,V,3454.884,N,07502.426,W,36.5,1.48,121218,,E*48
$GPGGA,144507.384,3454.884,N,07502.426,W,0,04,0.4,,M,,M,,*71
$GPGLL,3454.884,N,07502.426,W,144508.384,V*30
$GPGSA,A,2,11,01,15,05,18,18,,,,,,,0.7,0.6,0.8*3A
$GPGSV,2,1,06,11,39,260,59,01,61,323,62,15,78,354,77,05,24,149,80*70
$GPGSV,2,2,06,18,40,036,21,18,89,210,18*76
$GPRMC,144512.384,V,3454.883,N,07502.425,W,81.5,1.49,121218,,E*44
$GPGGA,144513.384,3454.883,N,07502.425,W,0,04,0.6,,M,,M,,*72
$GPGLL,3454.883,N,07502.425,W,144514.384,V*39
$GPGSA,A,3,11,01,15,05,18,18,,,,,,,0.6,1.0,0.6*33
$GPGSV,2,1,06,11,43,069,35,01,61,154,48,15,82,318,22,05,42,142,16*7F
$GPGSV,2,2,06,18,69,317,43,18,05,232,19*7C
$GPRMC,144518.384,V,3454.882,N,07502.424,W,26.1,1.48,121218,,E*46
$GPGGA,144519.384,3454.882,N,07502.424,W,0,04,1.0,,M,,M,,*7F
$GPGLL,3454.882,N,07502.424,W,144520.384,V*3E
$GPGSA,A,3,11,01,15,05,18,18,,,,,,,0.2,0.5,0.8*3D
$GPGSV,2,1,06,11,11,026,70,01,57,087,42,15,50,186,68,05,66,340,41*72
$GPGSV,2,2,06,18,84,274,35,18,12,350,67*70
$GPRMC,144524.384,V,3454.881,N,07502.422,W,3.9,1.38,121218,,E*74
$GPGGA,144525.384,3454.881,N,07502.422,W,0,04,0.5,,M,,M,,*71
$GPGLL,3454.881,N,07502.422,W,144526.384,V*3D
$GPGSA,A,3,11,01,15,05,18,18,,,,,,,0.8,0.9,0.8*3B
$GPGSV,2,1,06,11,80,296,35,01,81,357,53,15,06,281,79,05,59,162,26*7F
$GPGSV,2,2,06,18,87,320,44,18,73,347,66*75
$GPRMC,144530.384,V,3454.880,N,07502.421,W,40.3,1.38,121218,,E*4E
$GPGGA,144531.384,3454.880,N,07502.421,W,0,04,0.9,,M,,M,,*7A
$GPGLL,3454.880,N,07502.421,W,144532.384,V*3A
$GPGSA,A,3,11,01,15,05,18,18,,,,,,,0.3,0.2,0.7*34
$GPGSV,2,1,06,11,55,250,54,01,71,008,51,15,54,336,22,05,83,201,34*78
$GPGSV,2,2,06,18,35,287,75,18,05,259,36*78
$GPRMC,144536.384,V,3454.878,N,07502.420,W,99.9,1.75,121218,,E*49
$GPGGA,144537.384,3454.878,N,07502.420,W,0,04,0.2,,M,,M,,*71
$GPGLL,3454.878,N,07502.420,W,144538.384,V*36
$GPGSA,A,3,11,01,15,05,18,18,,,,,,,0.9,0.4,1.0*3E
$GPGSV,2,1,06,11,05,203,20,01,42,210,15,15,87,049,39,05,84,262,56*7A
$GPGSV,2,2,06,18,64,142,20,18,25,177,27*7B
$GPRMC,144542.384,V,3454.876,N,07502.419,W,41.3,1.67,121218,,E*42
$GPGGA,144543.384,3454.876,N,07502.419,W,0,04,0.4,,M,,M,,*70
$GPGLL,3454.876,N,07502.419,W,144544.384,V*39
$GPGSA,A,3,11,01,15,05,18,18,,,,,,,0.8,0.3,0.3*3A
$GPGSV,2,1,06,11,52,092,53,01,13,324,68,15,53,108,65,05,64,311,50*77
$GPGSV,2,2,06,18,10,136,59,18,67,119,47*7D
$GPRMC,144548.384,V,3454.875,N,07502.418,W,64.2,1.58,121218,,E*40
$GPGGA,144549.384,3454.875,N,07502.418,W,0,04,0.3,,M,,M,,*7F
$GPGLL,3454.875,N,07502.418,W,144550.384,V*3E
$GPGSA,A,2,11,01,15,05,18,18,,,,,,,0.5,0.3,0.9*3C
$GPGSV,2,1,06,11,74,019,32,01,45,275,25,15,88,176,78,05,58,241,84*79
$GPGSV,2,2,06,18,43,059,47,18,66,131,89*75
$GPRMC,144554.384,V,3454.873,N,07502.417,W,48.1,1.67,121218,,E*45
$GPGGA,144555.384,3454.873,N,07502.417,W,0,04,0.3,,M,,M,,*7B
$GPGLL,3454.873,N,07502.417,W,144556.384,V*31
$GPGSA,A,2,11,01,15,05,18,18,,,,,,,0.2,0.9,0.1*39
$GPGSV,2,1,06,11,05,105,27,01,54,248,54,15,22,134,44,05,34,191,62*7A
$GPGSV,2,2,06,18,09,218,46,18,63,029,88*71
$GPRMC,144600.384,V,3454.872,N,07502.416,W,91.9,1.61,121218,,E*4D
$GPGGA,144601.384,3454.872,N,07502.416,W,0,04,0.9,,M,,M,,*73
$GPGLL,3454.872,N,07502.416,W,144602.384,V*33
$GPGSA,A,3,11,01,15,05,18,18,,,,,,,0.2,0.7,0.9*3E
$GPGSV,2,1,06,11,40,218,42,01,05,193,60,15,41,203,79,05,46,297,81*70
$GPGSV,2,2,06,18,19,218,80,18,57,018,45*7E
$GPRMC,144606.384,V,3454.871,N,07502.415,W,90.0,1.53,121218,,E*42
$GPGGA,144607.384,3454.871,N,07502.415,W,0,04,0.7,,M,,M,,*7B
$GPGLL,3454.871,N,07502.415,W,144608.384,V*39
$GPGSA,A,2,11,01,15,05,18,18,,,,,,,0.0,0.4,0.3*34
$GPGSV,2,1,06,11,44,298,18,01,26,117,57,15,12,180,43,05,35,334,15*7C
$GPGSV,2,2,06,18,26,123,66,18,42,078,69*7D
$GPRMC,144612.384,V,3454.869,N,07502.413,W,35.0,1.44,121218,,E*41
$GPGGA,144613.384,3454.869,N,07502.413,W,0,04,0.4,,M,,M,,*72
$GPGLL,3454.869,N,07502.413,W,144614.384,V*3B
$GPGSA,A,2,11,01,15,05,18,18,,,,,,,0.4,0.6,0.6*37
$GPGSV,2,1,06,11,59,091,23,01,14,208,30,15,79,060,62,05,16,302,72*7A
$GPGSV,2,2,06,18,27,103,50,18,52,040,76*7F
$GPRMC,144618.384,V,3454.868,N,07502.412,W,21.7,1.36,121218,,E*4C
$GPGGA,144619.384,3454.868,N,07502.412,W,0,04,0.6,,M,,M,,*7A
$GPGLL,3454.868,N,07502.412,W,144620.384,V*3C
$GPGSA,A,2,11,01,15,05,18,18,,,,,,,0.4,0.7,0.9*39
$GPGSV,2,1,06,11,77,043,29,01,87,050,74,15,82,168,78,05,75,074,67*73
$GPGSV,2,2,06,18,26,101,61,18,26,157,81*72
$GPRMC,144624.384,V,3454.868,N,07502.410,W,41.7,1.32,121218,,E*43
$GPGGA,144625.384,3454.868,N,07502.410,W,0,04,0.7,,M,,M,,*76
$GPGLL,3454.868,N,07502.410,W,144626.384,V*38
$GPGSA,A,3,11,01,15,05,18,18,,,,,,,0.5,0.7,0.2*32
$GPGSV,2,1,06,11,53,077,30,01,76,201,30,15,89,241,84,05,42,152,28*78
$GPGSV,2,2,06,18,35,139,23,18,47,215,17*70
$GPRMC,144630.384,V,3454.866,N,07502.410,W,47.7,1.75,121218,,E*4D
$GPGGA,144631.384,3454.866,N,07502.410,W,0,04,0.7,,M,,M,,*7D
$GPGLL,3454.866,N,07502.410,W,144632.384,V*33
$GPGSA,A,2,11,01,15,05,18,18,,,,,,,0.6,0.7,0.1*33
$GPGSV,2,1,06,11,73,175,85,01,69,101,54,15,42,113,39,05,65,312,59*78
$GPGSV,2,2,06,18,18,348,85,18,41,171,49*7B
$GPRMC,144636.384,V,3454.864,N,07502.409,W,40.5,1.69,121218,,E*49
$GPGGA,144637.384,3454.864,N,07502.409,W,0,04,0.7,,M,,M,,*71
$GPGLL,3454.864,N,07502.409,W,144638.384,V*33
$GPGSA,A,2,11,01,15,05,18,18,,,,,,,0.7,0.4,0.1*31
$GPGSV,2,1,06,11,28,329,41,01,17,054,46,15,38,319,39,05,41,194,61*7A
$GPGSV,2,2,06,18,81,191,30,18,32,208,62*73
$GPRMC,144642.384,V,3454.863,N,07502.408,W,83.5,1.64,121218,,E*4E
$GPGGA,144643.384,3454.863,N,07502.408,W,0,04,0.4,,M,,M,,*77
$GPGLL,3454.863,N,07502.408,W,144644.384,V*3E
$GPGSA,A,3,11,01,15,05,18,18,,,,,,,0.9,0.0,1.0*3A
$GPGSV,2,1,06,11,79,173,84,01,51,321,85,15,23,151,22,05,88,134,81*79
$GPGSV,2,2,06,18,85,132,36,18,38,063,26*7D
$GPRMC,144648.384,V,3454.861,N,07502.407,W,5.6,1.59,121218,,E*7A
$GPGGA,144649.384,3454.861,N,07502.407,W,0,04,0.0,,M,,M,,*74
$GPGLL,3454.861,N,07502.407,W,144650.384,V*36
$GPGSA,A,3,11,01,15,05,18,18,,,,,,,0.7,0.8,1.0*3C
$GPGSV,2,1,06,11,84,127,89,01,33,315,15,15,10,282,24,05,24,126,83*71
$GPGSV,2,2,06,18,08,007,16,18,51,067,82*78
$GPRMC,144654.384,V,3454.860,N,07502.406,W,21.0,1.57,121218,,E*49
$GPGGA,144655.384,3454.860,N,07502.406,W,0,04,0.8,,M,,M,,*71
$GPGLL,3454.860,N,07502.406,W,144656.384,V*30
$GPGSA,A,3,11,01,15,05,18,18,,,,,,,0.7,0.0,0.4*31
$GPGSV,2,1,06,11,57,133,63,01,56,178,26,15,86,178,15,05,74,002,72*73
$GPGSV,2,2,06,18,58,188,77,18,76,245,42*77
$GPRMC,144700.384,V,3454.858,N,07502.405,W,58.3,1.68,121218,,E*40
$GPGGA,144701.384,3454.858,N,07502.405,W,0,04,0.0,,M,,M,,*71
$GPGLL,3454.858,N,07502.405,W,144702.384,V*38
$GPGSA,A,2,11,01,15,05,18,18,,,,,,,0.9,0.3,0.5*3C
$GPGSV,2,1,06,11,49,196,69,01,58,272,22,15,08,152,42,05,24,031,75*74
$GPGSV,2,2,06,18,56,005,47,18,37,011,47*7D
$GPRMC,144706.384,V,3454.857,N,07502.404,W,90.5,1.61,121218,,E*43
$GPGGA,144707.384,3454.857,N,07502.404,W,0,04,0.3,,M,,M,,*7A
$GPGLL,3454.857,N,07502.404,W,144708.384,V*3C
$GPGSA,A,2,11,01,15,05,18,18,,,,,,,0.5,0.8,0.1*3F
$GPGSV,2,1,06,11,63,299,51,01,54,350,62,15,50,055,71,05,25,248,89*77
$GPGSV,2,2,06,18,17,121,56,18,39,255,44*70
$GPRMC,144712.384,V,3454.856,N,07502.402,W,86.9,1.53,121218,,E*4B
$GPGGA,144713.384,3454.856,N,07502.402,W,0,04,0.8,,M,,M,,*73
$GPGLL,3454.856,N,07502.402,W,144714.384,V*36
$GPGSA,A,2,11,01,15,05,18,18,,,,,,,0.2,1.0,0.1*31
$GPGSV,2,1,06,11,76,109,68,01,88,059,69,15,78,240,15,05,09,056,64*7D
$GPGSV,2,2,06,18,59,348,16,18,56,295,72*73
$GPRMC,144718.384,V,3454.854,N,07502.401,W,76.4,1.63,121218,,E*41
$GPGGA,144719.384,3454.854,N,07502.401,W,0,04,1.0,,M,,M,,*71
$GPGLL,3454.854,N,07502.401,W,144720.384,V*30
$GPGSA,A,2,11,01,15,05,18,18,,,,,,,0.3,0.9,0.1*38
$GPGSV,2,1,06,11,07,340,49,01,66,051,58,15,30,084,69,05,52,050,50*7F
$GPGSV,2,2,06,18,10,140,19,18,87,208,17*70
$GPRMC,144724.384,V,3454.853,N,07502.400,W,86.7,1.61,121218,,E*46
$GPGGA,144725.384,3454.853,N,07502.400,W,0,04,0.9,,M,,M,,*70
$GPGLL,3454.853,N,07502.400,W,144726.384,V*30
$GPGSA,A,2,11,01,15,05,18,18,,,,,,,0.8,0.4,0.2*3D
$GPGSV,2,1,06,11,10,025,40,01,12,352,35,15,21,041,74,05,11,208,74*73
$GPGSV,2,2,06,18,61,266,19,18,53,326,33*73
$GPRMC,144730.384,V,3454.851,N,07502.400,W,69.8,1.69,121218,,E*47
$GPGGA,144731.384,3454.851,N,07502.400,W,0,04,0.4,,M,,M,,*7A
$GPGLL,3454.851,N,07502.400,W,144732.384,V*37
$GPGSA,A,2,11,01,15,05,18,18,,,,,,,0.2,0.1,1.0*31
$GPGSV,2,1,06,11,81,145,58,01,69,316,25,15,16,161,50,05,77,090,19*71
$GPGSV,2,2,06,18,40,216,22,18,76,217,25*7C
$GPRMC,144736.384,V,3454.850,N,07502.399,W,46.9,1.58,121218,,E*49
$GPGGA,144737.384,3454.850,N,07502.399,W,0,04,0.1,,M,,M,,*7F
$GPGLL,3454.850,N,07502.399,W,144738.384,V*3B
$GPGSA,A,3,11,01,15,05,18,18,,,,,,,0.4,0.6,0.8*38
$GPGSV,2,1,06,11,27,316,53,01,27,282,80,15,15,156,18,05,50,228,61*7B
$GPGSV,2,2,06,18,49,326,86,18,56,058,61*72
$GPRMC,144742.384,V,3454.848,N,07502.397,W,76.6,1.61,121218,,E*4B
$GPGGA,144743.384,3454.848,N,07502.397,W,0,04,0.6,,M,,M,,*7C
$GPGLL,3454.848,N,07502.397,W,144744.384,V*37
$GPGSA,A,3,11,01,15,05,18,18,,,,,,,0.3,0.7,0.6*30
$GPGSV,2,1,06,11,82,279,15,01,29,270,82,15,63,006,22,05,70,194,58*7F
$GPGSV,2,2,06,18,63,101,79,18,40,074,52*74
$GPRMC,144748.384,V,3454.847,N,07502.397,W,48.0,1.67,121218,,E*43
$GPGGA,144749.384,3454.847,N,07502.397,W,0,04,0.7,,M,,M,,*78
$GPGLL,3454.847,N,07502.397,W,144750.384,V*3D
$GPGSA,A,2,11,01,15,05,18,18,,,,,,,0.9,0.6,0.6*3A
$GPGSV,2,1,06,11,74,179,29,01,33,249,30,15,06,003,15,05,77,268,78*75
$GPGSV,2,2,06,18,58,124,18,18,26,235,41*79
$GPRMC,144754.384,V,3454.845,N,07502.396,W,57.1,1.73,121218,,E*47
$GPGGA,144755.384,3454.845,N,07502.396,W,0,04,0.6,,M,,M,,*77
$GPGLL,3454.845,N,07502.396,W,144756.384,V*38
$GPGSA,A,2,11,01,15,05,18,18,,,,,,,0.7,1.0,0.5*30
$GPGSV,2,1,06,11,45,270,25,01,46,103,76,15,17,166,61,05,14,277,35*7F
$GPGSV,2,2,06,18,36,211,30,18,52,249,44*73
$GPRMC,144800.384,V,3454.843,N,07502.395,W,15.8,1.71,121218,,E*41
$GPGGA,144801.384,3454.843,N,07502.395,W,0,04,1.0,,M,,M,,*7B
$GPGLL,3454.843,N,07502.395,W,144802.384,V*33
$GPGSA,A,2,11,01,15,05,18,18,,,,,,,0.6,0.8,0.6*3B
$GPGSV,2,1,06,11,78,209,56,01,70,286,16,15,20,183,67,05,47,080,40*71
$GPGSV,2,2,06,18,42,142,89,18,33,234,67*7B
$GPRMC,144806.384,V,3454.842,N,07502.394,W,71.0,1.69,121218,,E*44
$GPGGA,144807.384,3454.842,N,07502.394,W,0,04,0.8,,M,,M,,*74
$GPGLL,3454.842,N,07502.394,W,144808.384,V*39
$GPGSA,A,2,11,01,15,05,18,18,,,,,,,0.6,0.6,0.7*34
$GPGSV,2,1,06,11,42,064,87,01,61,075,61,15,13,338,23,05,85,077,30*70
$GPGSV,2,2,06,18,14,254,60,18,09,125,81*79
$GPRMC,144812.384,V,3454.840,N,07502.393,W,52.0,1.64,121218,,E*48
$GPGGA,144813.384,3454.840,N,07502.393,W,0,04,0.6,,M,,M,,*7A
$GPGLL,3454.840,N,07502.393,W,144814.384,V*31
$GPGSA,A,2,11,01,15,05,18,18,,,,,,,0.8,0.9,0.7*35
$GPGSV,2,1,06,11,38,126,27,01,38,235,89,15,28,029,37,05,78,179,32*7D
$GPGSV,2,2,06,18,09,275,61,18,20,286,56*7C
$GPRMC,144818.384,V,3454.839,N,07502.392,W,20.9,1.67,121218,,E*42
$GPGGA,144819.384,3454.839,N,07502.392,W,0,04,0.9,,M,,M,,*70
$GPGLL,3454.839,N,07502.392,W,144820.384,V*39
$GPGSA,A,2,11,01,15,05,18,18,,,,,,,0.8,0.9,0.5*37
$GPGSV,2,1,06,11,19,161,17,01,67,024,89,15,36,035,46,05,34,290,42*79
$GPGSV,2,2,06,18,74,240,84,18,49,286,23*76
$GPRMC,144824.384,V,3454.837,N,07502.392,W,33.7,1.69,121218,,E*41
$GPGGA,144825.384,3454.837,N,07502.392,W,0,04,0.9,,M,,M,,*71
$GPGLL,3454.837,N,07502.392,W,144826.384,V*31
$GPGSA,A,2,11,01,15,05,18,18,,,,,,,0.3,0.6,0.2*34
$GPGSV,2,1,06,11,76,207,79,01,89,001,19,15,25,238,70,05,84,264,49*76
$GPGSV,2,2,06,18,70,045,34,18,06,168,23*76
$GPRMC,144830.384,V,3454.835,N,07502.391,W,99.2,1.67,121218,,E*4E
$GPGGA,144831.384,3454.835,N,07502.391,W,0,04,0.6,,M,,M,,*7A
$GPGLL,3454.835,N,07502.391,W,144832.384,V*35
$GPGSA,A,2,11,01,15,05,18,18,,,,,,,0.7,0.3,0.9*3E
$GPGSV,2,1,06,11,62,052,39,01,20,230,52,15,11,339,40,05,80,196,87*75
$GPGSV,2,2,06,18,58,303,43,18,22,349,87*74
$GPRMC,144836.384,V,3454.834,N,07502.390,W,76.7,1.63,121218,,E*48
$GPGGA,144837.384,3454.834,N,07502.390,W,0,04,0.3,,M,,M,,*79
$GPGLL,3454.834,N,07502.390,W,144838.384,V*3F
$GPGSA,A,2,11,01,15,05,18,18,,,,,,,0.4,0.3,0.5*31
$GPGSV,2,1,06,11,80,126,18,01,16,187,76,15,57,014,26,05,71,150,63*74
$GPGSV,2,2,06,18,12,180,52,18,27,181,89*7E
$GPRMC,144842.384,V,3454.832,N,07502.389,W,56.6,1.64,121218,,E*41
$GPGGA,144843.384,3454.832,N,07502.389,W,0,04,0.3,,M,,M,,*74
$GPGLL,3454.832,N,07502.389,W,144844.384,V*3A
$GPGSA,A,2,11,01,15,05,18,18,,,,,,,0.2,0.2,0.8*3B
$GPGSV,2,1,06,11,19,078,16,01,55,347,48,15,32,119,33,05,65,190,47*70
$GPGSV,2,2,06,18,60,325,69,18,38,083,59*7E
$GPRMC,144848.384,V,3454.831,N,07502.388,W,89.1,1.61,121218,,E*49
$GPGGA,144849.384,3454.831,N,07502.388,W,0,04,0.2,,M,,M,,*7D
$GPGLL,3454.831,N,07502.388,W,144850.384,V*3D
$GPGSA,A,3,11,01,15,05,18,18,,,,,,,0.6,0.7,0.9*3A
$GPGSV,2,1,06,11,84,273,87,01,82,018,83,15,77,342,39,05,22,185,41*77
$GPGSV,2,2,06,18,37,071,46,18,40,198,38*70
$GPRMC,144854.384,V,3454.829,N,07502.387,W,17.8,1.64,121218,,E*49
$GPGGA,144855.384,3454.829,N,07502.387,W,0,04,0.7,,M,,M,,*73
$GPGLL,3454.829,N,07502.387,W,144856.384,V*3D
$GPGSA,A,3,11,01,15,05,18,18,,,,,,,0.5,0.1,0.8*3E
$GPGSV,2,1,06,11,05,057,48,01,71,109,15,15,88,207,20,05,31,330,20*7A
$GPGSV,2,2,06,18,72,175,40,18,13,150,21*78
$GPRMC,144900.384,V,3454.828,N,07502.386,W,88.7,1.70,121218,,E*45
$GPGGA,144901.384,3454.828,N,07502.386,W,0,04,0.1,,M,,M,,*75
$GPGLL,3454.828,N,07502.386,W,144902.384,V*3D
$GPGSA,A,3,11,01,15,05,18,18,,,,,,,0.9,0.7,0.7*3B
$GPGSV,2,1,06,11,44,241,22,01,79,346,68,15,54,105,34,05,39,014,67*76
$GPGSV,2,2,06,18,46,023,48,18,17,322,69*7A
$GPRMC,144906.384,V,3454.826,N,07502.385,W,9.2,1.73,121218,,E*71
$GPGGA,144907.384,3454.826,N,07502.385,W,0,04,0.7,,M,,M,,*78
$GPGLL,3454.826,N,07502.385,W,144908.384,V*3A
$GPGSA,A,2,11,01,15,05,18,18,,,,,,,0.9,0.5,0.8*37
$GPGSV,2,1,06,11,64,067,84,01,83,089,80,15,69,210,32,05,70,235,81*76
$GPGSV,2,2,06,18,53,333,67,18,18,054,16*74
$GPRMC,144912.384,V,3454.824,N,07502.384,W,38.5,1.76,121218,,E*47
$GPGGA,144913.384,3454.824,N,07502.384,W,0,04,0.5,,M,,M,,*7C
$GPGLL,3454.824,N,07502.384,W,144914.384,V*34
$GPGSA,A,2,11,01,15,05,18,18,,,,,,,0.5,1.0,0.4*33
$GPGSV,2,1,06,11,85,065,89,01,49,120,36,15,85,296,21,05,46,232,23*7B
$GPGSV,2,2,06,18,44,041,51,18,56,212,17*7A
$GPRMC,144918.384,V,3454.823,N,07502.384,W,60.0,1.94,121218,,E*4E
$GPGGA,144919.384,3454.823,N,07502.384,W,0,04,1.0,,M,,M,,*75
$GPGLL,3454.823,N,07502.384,W,144920.384,V*34
$GPGSA,A,3,11,01,15,05,18,18,,,,,,,0.2,0.8,0.3*3B
$GPGSV,2,1,06,11,73,015,62,01,80,280,57,15,82,000,40,05,86,277,19*72
$GPGSV,2,2,06,18,77,212,68,18,06,042,47*73
$GPRMC,144924.384,V,3454.821,N,07502.384,W,39.8,1.94,121218,,E*47
$GPGGA,144925.384,3454.821,N,07502.384,W,0,04,0.8,,M,,M,,*71
$GPGLL,3454.821,N,07502.384,W,144926.384,V*30
$GPGSA,A,2,11,01,15,05,18,18,,,,,,,0.5,0.9,0.2*3D
$GPGSV,2,1,06,11,56,037,71,01,23,138,23,15,16,288,87,05,32,154,82*76
$GPGSV,2,2,06,18,48,336,70,18,71,291,43*79
$GPRMC,144930.384,V,3454.819,N,07502.385,W,67.3,2.21,121218,,E*45
$GPGGA,144931.384,3454.819,N,07502.385,W,0,04,0.9,,M,,M,,*7F
$GPGLL,3454.819,N,07502.385,W,144932.384,V*3F
$GPGSA,A,2,11,01,15,05,18,18,,,,,,,0.8,0.8,0.9*3A
$GPGSV,2,1,06,11,21,357,54,01,06,110,87,15,70,165,47,05,05,065,55*76
$GPGSV,2,2,06,18,26,107,59,18,24,037,53*75
