$GPGGA,151120.289,5231.368,N,01320.646,E,1,12,1.0,0.0,M,0.0,M,,*67
$GPGSA,A,3,01,02,03,04,05,06,07,08,09,10,11,12,1.0,1.0,1.0*30
$GPRMC,151120.289,A,5231.368,N,01320.646,E,038.9,098.7,121218,000.0,W*7E
$GPGGA,151121.289,5231.365,N,01320.663,E,1,12,1.0,0.0,M,0.0,M,,*6C
$GPGSA,A,3,01,02,03,04,05,06,07,08,09,10,11,12,1.0,1.0,1.0*30
$GPRMC,151121.289,A,5231.365,N,01320.663,E,038.9,098.7,121218,000.0,W*75
$GPGGA,151122.289,5231.363,N,01320.680,E,1,12,1.0,0.0,M,0.0,M,,*64
$GPGSA,A,3,01,02,03,04,05,06,07,08,09,10,11,12,1.0,1.0,1.0*30
$GPRMC,151122.289,A,5231.363,N,01320.680,E,038.9,098.7,121218,000.0,W*7D
$GPGGA,151123.289,5231.360,N,01320.697,E,1,12,1.0,0.0,M,0.0,M,,*60
$GPGSA,A,3,01,02,03,04,05,06,07,08,09,10,11,12,1.0,1.0,1.0*30
$GPRMC,151123.289,A,5231.360,N,01320.697,E,038.9,098.7,121218,000.0,W*79
$GPGGA,151124.289,5231.358,N,01320.715,E,1,12,1.0,0.0,M,0.0,M,,*67
$GPGSA,A,3,01,02,03,04,05,06,07,08,09,10,11,12,1.0,1.0,1.0*30
$GPRMC,151124.289,A,5231.358,N,01320.715,E,038.9,098.7,121218,000.0,W*7E
$GPGGA,151125.289,5231.355,N,01320.732,E,1,12,1.0,0.0,M,0.0,M,,*6E
$GPGSA,A,3,01,02,03,04,05,06,07,08,09,10,11,12,1.0,1.0,1.0*30
$GPRMC,151125.289,A,5231.355,N,01320.732,E,038.9,098.7,121218,000.0,W*77
$GPGGA,151126.289,5231.352,N,01320.749,E,1,12,1.0,0.0,M,0.0,M,,*66
$GPGSA,A,3,01,02,03,04,05,06,07,08,09,10,11,12,1.0,1.0,1.0*30
$GPRMC,151126.289,A,5231.352,N,01320.749,E,038.9,098.7,121218,000.0,W*7F
$GPGGA,151127.289,5231.350,N,01320.766,E,1,12,1.0,0.0,M,0.0,M,,*68
$GPGSA,A,3,01,02,03,04,05,06,07,08,09,10,11,12,1.0,1.0,1.0*30
$GPRMC,151127.289,A,5231.350,N,01320.766,E,038.9,098.7,121218,000.0,W*71
$GPGGA,151128.289,5231.347,N,01320.783,E,1,12,1.0,0.0,M,0.0,M,,*6A
$GPGSA,A,3,01,02,03,04,05,06,07,08,09,10,11,12,1.0,1.0,1.0*30
$GPRMC,151128.289,A,5231.347,N,01320.783,E,038.9,112.4,121218,000.0,W*73
$GPGGA,151129.289,5231.341,N,01320.798,E,1,12,1.0,0.0,M,0.0,M,,*67
$GPGSA,A,3,01,02,03,04,05,06,07,08,09,10,11,12,1.0,1.0,1.0*30
$GPRMC,151129.289,A,5231.341,N,01320.798,E,038.9,112.4,121218,000.0,W*7E
$GPGGA,151130.289,5231.335,N,01320.813,E,1,12,1.0,0.0,M,0.0,M,,*60
$GPGSA,A,3,01,02,03,04,05,06,07,08,09,10,11,12,1.0,1.0,1.0*30
$GPRMC,151130.289,A,5231.335,N,01320.813,E,038.9,112.4,121218,000.0,W*79
$GPGGA,151131.289,5231.329,N,01320.828,E,1,12,1.0,0.0,M,0.0,M,,*64
$GPGSA,A,3,01,02,03,04,05,06,07,08,09,10,11,12,1.0,1.0,1.0*30
$GPRMC,151131.289,A,5231.329,N,01320.828,E,038.9,112.4,121218,000.0,W*7D
$GPGGA,151132.289,5231.323,N,01320.842,E,1,12,1.0,0.0,M,0.0,M,,*61
$GPGSA,A,3,01,02,03,04,05,06,07,08,09,10,11,12,1.0,1.0,1.0*30
$GPRMC,151132.289,A,5231.323,N,01320.842,E,038.9,112.4,121218,000.0,W*78
$GPGGA,151133.289,5231.317,N,01320.857,E,1,12,1.0,0.0,M,0.0,M,,*63
$GPGSA,A,3,01,02,03,04,05,06,07,08,09,10,11,12,1.0,1.0,1.0*30
$GPRMC,151133.289,A,5231.317,N,01320.857,E,038.9,112.4,121218,000.0,W*7A
$GPGGA,151134.289,5231.311,N,01320.872,E,1,12,1.0,0.0,M,0.0,M,,*65
$GPGSA,A,3,01,02,03,04,05,06,07,08,09,10,11,12,1.0,1.0,1.0*30
$GPRMC,151134.289,A,5231.311,N,01320.872,E,038.9,121.8,121218,000.0,W*70
$GPGGA,151135.289,5231.303,N,01320.884,E,1,12,1.0,0.0,M,0.0,M,,*6E
$GPGSA,A,3,01,02,03,04,05,06,07,08,09,10,11,12,1.0,1.0,1.0*30
$GPRMC,151135.289,A,5231.303,N,01320.884,E,038.9,121.8,121218,000.0,W*7B
$GPGGA,151136.289,5231.296,N,01320.897,E,1,12,1.0,0.0,M,0.0,M,,*62
$GPGSA,A,3,01,02,03,04,05,06,07,08,09,10,11,12,1.0,1.0,1.0*30
$GPRMC,151136.289,A,5231.296,N,01320.897,E,038.9,121.8,121218,000.0,W*77
$GPGGA,151137.289,5231.288,N,01320.909,E,1,12,1.0,0.0,M,0.0,M,,*6A
$GPGSA,A,3,01,02,03,04,05,06,07,08,09,10,11,12,1.0,1.0,1.0*30
$GPRMC,151137.289,A,5231.288,N,01320.909,E,038.9,121.8,121218,000.0,W*7F
$GPGGA,151138.289,5231.280,N,01320.921,E,1,12,1.0,0.0,M,0.0,M,,*67
$GPGSA,A,3,01,02,03,04,05,06,07,08,09,10,11,12,1.0,1.0,1.0*30
$GPRMC,151138.289,A,5231.280,N,01320.921,E,038.9,121.8,121218,000.0,W*72
$GPGGA,151139.289,5231.272,N,01320.934,E,1,12,1.0,0.0,M,0.0,M,,*6F
$GPGSA,A,3,01,02,03,04,05,06,07,08,09,10,11,12,1.0,1.0,1.0*30
$GPRMC,151139.289,A,5231.272,N,01320.934,E,038.9,121.8,121218,000.0,W*7A
$GPGGA,151140.289,5231.265,N,01320.946,E,1,12,1.0,0.0,M,0.0,M,,*62
$GPGSA,A,3,01,02,03,04,05,06,07,08,09,10,11,12,1.0,1.0,1.0*30
$GPRMC,151140.289,A,5231.265,N,01320.946,E,038.9,121.8,121218,000.0,W*77
$GPGGA,151141.289,5231.257,N,01320.959,E,1,12,1.0,0.0,M,0.0,M,,*6C
$GPGSA,A,3,01,02,03,04,05,06,07,08,09,10,11,12,1.0,1.0,1.0*30
$GPRMC,151141.289,A,5231.257,N,01320.959,E,038.9,121.8,121218,000.0,W*79
$GPGGA,151142.289,5231.249,N,01320.971,E,1,12,1.0,0.0,M,0.0,M,,*6A
$GPGSA,A,3,01,02,03,04,05,06,07,08,09,10,11,12,1.0,1.0,1.0*30
$GPRMC,151142.289,A,5231.249,N,01320.971,E,038.9,121.8,121218,000.0,W*7F
$GPGGA,151143.289,5231.242,N,01320.984,E,1,12,1.0,0.0,M,0.0,M,,*6A
$GPGSA,A,3,01,02,03,04,05,06,07,08,09,10,11,12,1.0,1.0,1.0*30
$GPRMC,151143.289,A,5231.242,N,01320.984,E,038.9,121.8,121218,000.0,W*7F
$GPGGA,151144.289,5231.234,N,01320.996,E,1,12,1.0,0.0,M,0.0,M,,*6F
$GPGSA,A,3,01,02,03,04,05,06,07,08,09,10,11,12,1.0,1.0,1.0*30
$GPRMC,151144.289,A,5231.234,N,01320.996,E,038.9,121.8,121218,000.0,W*7A
$GPGGA,151145.289,5231.226,N,01321.009,E,1,12,1.0,0.0,M,0.0,M,,*63
$GPGSA,A,3,01,02,03,04,05,06,07,08,09,10,11,12,1.0,1.0,1.0*30
$GPRMC,151145.289,A,5231.226,N,01321.009,E,038.9,121.8,121218,000.0,W*76
$GPGGA,151146.289,5231.219,N,01321.021,E,1,12,1.0,0.0,M,0.0,M,,*66
$GPGSA,A,3,01,02,03,04,05,06,07,08,09,10,11,12,1.0,1.0,1.0*30
$GPRMC,151146.289,A,5231.219,N,01321.021,E,038.9,121.8,121218,000.0,W*73
$GPGGA,151147.289,5231.211,N,01321.033,E,1,12,1.0,0.0,M,0.0,M,,*6C
$GPGSA,A,3,01,02,03,04,05,06,07,08,09,10,11,12,1.0,1.0,1.0*30
$GPRMC,151147.289,A,5231.211,N,01321.033,E,038.9,121.8,121218,000.0,W*79
$GPGGA,151148.289,5231.203,N,01321.046,E,1,12,1.0,0.0,M,0.0,M,,*62
$GPGSA,A,3,01,02,03,04,05,06,07,08,09,10,11,12,1.0,1.0,1.0*30
$GPRMC,151148.289,A,5231.203,N,01321.046,E,038.9,121.8,121218,000.0,W*77
$GPGGA,151149.289,5231.196,N,01321.058,E,1,12,1.0,0.0,M,0.0,M,,*63
$GPGSA,A,3,01,02,03,04,05,06,07,08,09,10,11,12,1.0,1.0,1.0*30
$GPRMC,151149.289,A,5231.196,N,01321.058,E,038.9,121.8,121218,000.0,W*76
$GPGGA,151150.289,5231.188,N,01321.071,E,1,12,1.0,0.0,M,0.0,M,,*6F
$GPGSA,A,3,01,02,03,04,05,06,07,08,09,10,11,12,1.0,1.0,1.0*30
$GPRMC,151150.289,A,5231.188,N,01321.071,E,038.9,128.5,121218,000.0,W*7E
$GPGGA,151151.289,5231.179,N,01321.082,E,1,12,1.0,0.0,M,0.0,M,,*6C
$GPGSA,A,3,01,02,03,04,05,06,07,08,09,10,11,12,1.0,1.0,1.0*30
$GPRMC,151151.289,A,5231.179,N,01321.082,E,038.9,128.5,121218,000.0,W*7D
$GPGGA,151152.289,5231.171,N,01321.092,E,1,12,1.0,0.0,M,0.0,M,,*66
$GPGSA,A,3,01,02,03,04,05,06,07,08,09,10,11,12,1.0,1.0,1.0*30
$GPRMC,151152.289,A,5231.171,N,01321.092,E,038.9,128.5,121218,000.0,W*77
$GPGGA,151153.289,5231.162,N,01321.103,E,1,12,1.0,0.0,M,0.0,M,,*6C
$GPGSA,A,3,01,02,03,04,05,06,07,08,09,10,11,12,1.0,1.0,1.0*30
$GPRMC,151153.289,A,5231.162,N,01321.103,E,038.9,128.5,121218,000.0,W*7D
$GPGGA,151154.289,5231.154,N,01321.114,E,1,12,1.0,0.0,M,0.0,M,,*68
$GPGSA,A,3,01,02,03,04,05,06,07,08,09,10,11,12,1.0,1.0,1.0*30
$GPRMC,151154.289,A,5231.154,N,01321.114,E,038.9,128.5,121218,000.0,W*79
$GPGGA,151155.289,5231.145,N,01321.125,E,1,12,1.0,0.0,M,0.0,M,,*6B
$GPGSA,A,3,01,02,03,04,05,06,07,08,09,10,11,12,1.0,1.0,1.0*30
$GPRMC,151155.289,A,5231.145,N,01321.125,E,038.9,128.5,121218,000.0,W*7A
$GPGGA,151156.289,5231.137,N,01321.136,E,1,12,1.0,0.0,M,0.0,M,,*6F
$GPGSA,A,3,01,02,03,04,05,06,07,08,09,10,11,12,1.0,1.0,1.0*30
$GPRMC,151156.289,A,5231.137,N,01321.136,E,038.9,128.5,121218,000.0,W*7E
$GPGGA,151157.289,5231.128,N,01321.146,E,1,12,1.0,0.0,M,0.0,M,,*67
$GPGSA,A,3,01,02,03,04,05,06,07,08,09,10,11,12,1.0,1.0,1.0*30
$GPRMC,151157.289,A,5231.128,N,01321.146,E,038.9,110.0,121218,000.0,W*78
$GPGGA,151158.289,5231.122,N,01321.162,E,1,12,1.0,0.0,M,0.0,M,,*64
$GPGSA,A,3,01,02,03,04,05,06,07,08,09,10,11,12,1.0,1.0,1.0*30
$GPRMC,151158.289,A,5231.122,N,01321.162,E,038.9,110.0,121218,000.0,W*7B
$GPGGA,151159.289,5231.117,N,01321.177,E,1,12,1.0,0.0,M,0.0,M,,*67
$GPGSA,A,3,01,02,03,04,05,06,07,08,09,10,11,12,1.0,1.0,1.0*30
$GPRMC,151159.289,A,5231.117,N,01321.177,E,038.9,110.0,121218,000.0,W*78
$GPGGA,151200.289,5231.111,N,01321.192,E,1,12,1.0,0.0,M,0.0,M,,*65
$GPGSA,A,3,01,02,03,04,05,06,07,08,09,10,11,12,1.0,1.0,1.0*30
$GPRMC,151200.289,A,5231.111,N,01321.192,E,038.9,110.0,121218,000.0,W*7A
$GPGGA,151201.289,5231.106,N,01321.207,E,1,12,1.0,0.0,M,0.0,M,,*6D
$GPGSA,A,3,01,02,03,04,05,06,07,08,09,10,11,12,1.0,1.0,1.0*30
$GPRMC,151201.289,A,5231.106,N,01321.207,E,038.9,110.0,121218,000.0,W*72
$GPGGA,151202.289,5231.100,N,01321.223,E,1,12,1.0,0.0,M,0.0,M,,*6E
$GPGSA,A,3,01,02,03,04,05,06,07,08,09,10,11,12,1.0,1.0,1.0*30
$GPRMC,151202.289,A,5231.100,N,01321.223,E,038.9,110.0,121218,000.0,W*71
$GPGGA,151203.289,5231.095,N,01321.238,E,1,12,1.0,0.0,M,0.0,M,,*68
$GPGSA,A,3,01,02,03,04,05,06,07,08,09,10,11,12,1.0,1.0,1.0*30
$GPRMC,151203.289,A,5231.095,N,01321.238,E,038.9,110.0,121218,000.0,W*77
$GPGGA,151204.289,5231.089,N,01321.253,E,1,12,1.0,0.0,M,0.0,M,,*6F
$GPGSA,A,3,01,02,03,04,05,06,07,08,09,10,11,12,1.0,1.0,1.0*30
$GPRMC,151204.289,A,5231.089,N,01321.253,E,038.9,110.0,121218,000.0,W*70
$GPGGA,151205.289,5231.084,N,01321.268,E,1,12,1.0,0.0,M,0.0,M,,*6B
$GPGSA,A,3,01,02,03,04,05,06,07,08,09,10,11,12,1.0,1.0,1.0*30
$GPRMC,151205.289,A,5231.084,N,01321.268,E,038.9,110.0,121218,000.0,W*74
$GPGGA,151206.289,5231.078,N,01321.283,E,1,12,1.0,0.0,M,0.0,M,,*6E
$GPGSA,A,3,01,02,03,04,05,06,07,08,09,10,11,12,1.0,1.0,1.0*30
$GPRMC,151206.289,A,5231.078,N,01321.283,E,038.9,110.0,121218,000.0,W*71
$GPGGA,151207.289,5231.073,N,01321.299,E,1,12,1.0,0.0,M,0.0,M,,*6F
$GPGSA,A,3,01,02,03,04,05,06,07,08,09,10,11,12,1.0,1.0,1.0*30
$GPRMC,151207.289,A,5231.073,N,01321.299,E,038.9,099.0,121218,000.0,W*70
$GPGGA,151208.289,5231.070,N,01321.316,E,1,12,1.0,0.0,M,0.0,M,,*65
$GPGSA,A,3,01,02,03,04,05,06,07,08,09,10,11,12,1.0,1.0,1.0*30
$GPRMC,151208.289,A,5231.070,N,01321.316,E,038.9,099.0,121218,000.0,W*7A
$GPGGA,151209.289,5231.067,N,01321.333,E,1,12,1.0,0.0,M,0.0,M,,*65
$GPGSA,A,3,01,02,03,04,05,06,07,08,09,10,11,12,1.0,1.0,1.0*30
$GPRMC,151209.289,A,5231.067,N,01321.333,E,038.9,099.0,121218,000.0,W*7A
$GPGGA,151210.289,5231.065,N,01321.350,E,1,12,1.0,0.0,M,0.0,M,,*6A
$GPGSA,A,3,01,02,03,04,05,06,07,08,09,10,11,12,1.0,1.0,1.0*30
$GPRMC,151210.289,A,5231.065,N,01321.350,E,038.9,099.0,121218,000.0,W*75
$GPGGA,151211.289,5231.062,N,01321.367,E,1,12,1.0,0.0,M,0.0,M,,*68
$GPGSA,A,3,01,02,03,04,05,06,07,08,09,10,11,12,1.0,1.0,1.0*30
$GPRMC,151211.289,A,5231.062,N,01321.367,E,038.9,099.0,121218,000.0,W*77
$GPGGA,151212.289,5231.059,N,01321.385,E,1,12,1.0,0.0,M,0.0,M,,*6F
$GPGSA,A,3,01,02,03,04,05,06,07,08,09,10,11,12,1.0,1.0,1.0*30
$GPRMC,151212.289,A,5231.059,N,01321.385,E,038.9,099.0,121218,000.0,W*70
$GPGGA,151213.289,5231.056,N,01321.402,E,1,12,1.0,0.0,M,0.0,M,,*69
$GPGSA,A,3,01,02,03,04,05,06,07,08,09,10,11,12,1.0,1.0,1.0*30
$GPRMC,151213.289,A,5231.056,N,01321.402,E,038.9,099.0,121218,000.0,W*76
$GPGGA,151214.289,5231.054,N,01321.419,E,1,12,1.0,0.0,M,0.0,M,,*66
$GPGSA,A,3,01,02,03,04,05,06,07,08,09,10,11,12,1.0,1.0,1.0*30
$GPRMC,151214.289,A,5231.054,N,01321.419,E,038.9,099.0,121218,000.0,W*79
$GPGGA,151215.289,5231.051,N,01321.436,E,1,12,1.0,0.0,M,0.0,M,,*6F
$GPGSA,A,3,01,02,03,04,05,06,07,08,09,10,11,12,1.0,1.0,1.0*30
$GPRMC,151215.289,A,5231.051,N,01321.436,E,038.9,099.0,121218,000.0,W*70
$GPGGA,151216.289,5231.048,N,01321.453,E,1,12,1.0,0.0,M,0.0,M,,*67
$GPGSA,A,3,01,02,03,04,05,06,07,08,09,10,11,12,1.0,1.0,1.0*30
$GPRMC,151216.289,A,5231.048,N,01321.453,E,038.9,099.0,121218,000.0,W*78
$GPGGA,151217.289,5231.046,N,01321.470,E,1,12,1.0,0.0,M,0.0,M,,*69
$GPGSA,A,3,01,02,03,04,05,06,07,08,09,10,11,12,1.0,1.0,1.0*30
$GPRMC,151217.289,A,5231.046,N,01321.470,E,038.9,099.0,121218,000.0,W*76
$GPGGA,151218.289,5231.043,N,01321.488,E,1,12,1.0,0.0,M,0.0,M,,*64
$GPGSA,A,3,01,02,03,04,05,06,07,08,09,10,11,12,1.0,1.0,1.0*30
$GPRMC,151218.289,A,5231.043,N,01321.488,E,038.9,099.0,121218,000.0,W*7B
$GPGGA,151219.289,5231.040,N,01321.505,E,1,12,1.0,0.0,M,0.0,M,,*62
$GPGSA,A,3,01,02,03,04,05,06,07,08,09,10,11,12,1.0,1.0,1.0*30
$GPRMC,151219.289,A,5231.040,N,01321.505,E,038.9,099.0,121218,000.0,W*7D
$GPGGA,151220.289,5231.037,N,01321.522,E,1,12,1.0,0.0,M,0.0,M,,*6D
$GPGSA,A,3,01,02,03,04,05,06,07,08,09,10,11,12,1.0,1.0,1.0*30
$GPRMC,151220.289,A,5231.037,N,01321.522,E,038.9,073.8,121218,000.0,W*7E
$GPGGA,151221.289,5231.042,N,01321.538,E,1,12,1.0,0.0,M,0.0,M,,*65
$GPGSA,A,3,01,02,03,04,05,06,07,08,09,10,11,12,1.0,1.0,1.0*30
$GPRMC,151221.289,A,5231.042,N,01321.538,E,038.9,073.8,121218,000.0,W*76
$GPGGA,151222.289,5231.047,N,01321.554,E,1,12,1.0,0.0,M,0.0,M,,*69
$GPGSA,A,3,01,02,03,04,05,06,07,08,09,10,11,12,1.0,1.0,1.0*30
$GPRMC,151222.289,A,5231.047,N,01321.554,E,038.9,073.8,121218,000.0,W*7A
$GPGGA,151223.289,5231.051,N,01321.570,E,1,12,1.0,0.0,M,0.0,M,,*69
$GPGSA,A,3,01,02,03,04,05,06,07,08,09,10,11,12,1.0,1.0,1.0*30
$GPRMC,151223.289,A,5231.051,N,01321.570,E,038.9,073.8,121218,000.0,W*7A
$GPGGA,151224.289,5231.056,N,01321.586,E,1,12,1.0,0.0,M,0.0,M,,*60
$GPGSA,A,3,01,02,03,04,05,06,07,08,09,10,11,12,1.0,1.0,1.0*30
$GPRMC,151224.289,A,5231.056,N,01321.586,E,038.9,073.8,121218,000.0,W*73
$GPGGA,151225.289,5231.061,N,01321.602,E,1,12,1.0,0.0,M,0.0,M,,*6A
$GPGSA,A,3,01,02,03,04,05,06,07,08,09,10,11,12,1.0,1.0,1.0*30
$GPRMC,151225.289,A,5231.061,N,01321.602,E,038.9,055.9,121218,000.0,W*7C
$GPGGA,151226.289,5231.069,N,01321.614,E,1,12,1.0,0.0,M,0.0,M,,*66
$GPGSA,A,3,01,02,03,04,05,06,07,08,09,10,11,12,1.0,1.0,1.0*30
$GPRMC,151226.289,A,5231.069,N,01321.614,E,038.9,055.9,121218,000.0,W*70
$GPGGA,151227.289,5231.077,N,01321.626,E,1,12,1.0,0.0,M,0.0,M,,*69
$GPGSA,A,3,01,02,03,04,05,06,07,08,09,10,11,12,1.0,1.0,1.0*30
$GPRMC,151227.289,A,5231.077,N,01321.626,E,038.9,055.9,121218,000.0,W*7F
$GPGGA,151228.289,5231.085,N,01321.638,E,1,12,1.0,0.0,M,0.0,M,,*64
$GPGSA,A,3,01,02,03,04,05,06,07,08,09,10,11,12,1.0,1.0,1.0*30
$GPRMC,151228.289,A,5231.085,N,01321.638,E,038.9,055.9,121218,000.0,W*72
$GPGGA,151229.289,5231.093,N,01321.649,E,1,12,1.0,0.0,M,0.0,M,,*64
$GPGSA,A,3,01,02,03,04,05,06,07,08,09,10,11,12,1.0,1.0,1.0*30
$GPRMC,151229.289,A,5231.093,N,01321.649,E,038.9,055.9,121218,000.0,W*72
$GPGGA,151230.289,5231.101,N,01321.661,E,1,12,1.0,0.0,M,0.0,M,,*6C
$GPGSA,A,3,01,02,03,04,05,06,07,08,09,10,11,12,1.0,1.0,1.0*30
$GPRMC,151230.289,A,5231.101,N,01321.661,E,038.9,055.9,121218,000.0,W*7A
$GPGGA,151231.289,5231.109,N,01321.673,E,1,12,1.0,0.0,M,0.0,M,,*66
$GPGSA,A,3,01,02,03,04,05,06,07,08,09,10,11,12,1.0,1.0,1.0*30
$GPRMC,151231.289,A,5231.109,N,01321.673,E,038.9,055.9,121218,000.0,W*70
$GPGGA,151232.289,5231.117,N,01321.685,E,1,12,1.0,0.0,M,0.0,M,,*63
$GPGSA,A,3,01,02,03,04,05,06,07,08,09,10,11,12,1.0,1.0,1.0*30
$GPRMC,151232.289,A,5231.117,N,01321.685,E,038.9,075.2,121218,000.0,W*7C
$GPGGA,151233.289,5231.121,N,01321.701,E,1,12,1.0,0.0,M,0.0,M,,*6A
$GPGSA,A,3,01,02,03,04,05,06,07,08,09,10,11,12,1.0,1.0,1.0*30
$GPRMC,151233.289,A,5231.121,N,01321.701,E,038.9,075.2,121218,000.0,W*75
$GPGGA,151234.289,5231.125,N,01321.718,E,1,12,1.0,0.0,M,0.0,M,,*61
$GPGSA,A,3,01,02,03,04,05,06,07,08,09,10,11,12,1.0,1.0,1.0*30
$GPRMC,151234.289,A,5231.125,N,01321.718,E,038.9,075.2,121218,000.0,W*7E
$GPGGA,151235.289,5231.130,N,01321.734,E,1,12,1.0,0.0,M,0.0,M,,*6A
$GPGSA,A,3,01,02,03,04,05,06,07,08,09,10,11,12,1.0,1.0,1.0*30
$GPRMC,151235.289,A,5231.130,N,01321.734,E,038.9,075.2,121218,000.0,W*75
$GPGGA,151236.289,5231.134,N,01321.750,E,1,12,1.0,0.0,M,0.0,M,,*6F
$GPGSA,A,3,01,02,03,04,05,06,07,08,09,10,11,12,1.0,1.0,1.0*30
$GPRMC,151236.289,A,5231.134,N,01321.750,E,038.9,075.2,121218,000.0,W*70
$GPGGA,151237.289,5231.138,N,01321.766,E,1,12,1.0,0.0,M,0.0,M,,*67
$GPGSA,A,3,01,02,03,04,05,06,07,08,09,10,11,12,1.0,1.0,1.0*30
$GPRMC,151237.289,A,5231.138,N,01321.766,E,038.9,075.2,121218,000.0,W*78
$GPGGA,151238.289,5231.142,N,01321.783,E,1,12,1.0,0.0,M,0.0,M,,*6E
$GPGSA,A,3,01,02,03,04,05,06,07,08,09,10,11,12,1.0,1.0,1.0*30
$GPRMC,151238.289,A,5231.142,N,01321.783,E,038.9,075.2,121218,000.0,W*71
$GPGGA,151239.289,5231.147,N,01321.799,E,1,12,1.0,0.0,M,0.0,M,,*61
$GPGSA,A,3,01,02,03,04,05,06,07,08,09,10,11,12,1.0,1.0,1.0*30
$GPRMC,151239.289,A,5231.147,N,01321.799,E,038.9,075.2,121218,000.0,W*7E
$GPGGA,151240.289,5231.151,N,01321.815,E,1,12,1.0,0.0,M,0.0,M,,*63
$GPGSA,A,3,01,02,03,04,05,06,07,08,09,10,11,12,1.0,1.0,1.0*30
$GPRMC,151240.289,A,5231.151,N,01321.815,E,038.9,065.6,121218,000.0,W*79
$GPGGA,151241.289,5231.157,N,01321.830,E,1,12,1.0,0.0,M,0.0,M,,*63
$GPGSA,A,3,01,02,03,04,05,06,07,08,09,10,11,12,1.0,1.0,1.0*30
$GPRMC,151241.289,A,5231.157,N,01321.830,E,038.9,065.6,121218,000.0,W*79
$GPGGA,151242.289,5231.164,N,01321.844,E,1,12,1.0,0.0,M,0.0,M,,*63
$GPGSA,A,3,01,02,03,04,05,06,07,08,09,10,11,12,1.0,1.0,1.0*30
$GPRMC,151242.289,A,5231.164,N,01321.844,E,038.9,065.6,121218,000.0,W*79
$GPGGA,151243.289,5231.170,N,01321.858,E,1,12,1.0,0.0,M,0.0,M,,*6A
$GPGSA,A,3,01,02,03,04,05,06,07,08,09,10,11,12,1.0,1.0,1.0*30
$GPRMC,151243.289,A,5231.170,N,01321.858,E,038.9,065.6,121218,000.0,W*70
$GPGGA,151244.289,5231.177,N,01321.872,E,1,12,1.0,0.0,M,0.0,M,,*62
$GPGSA,A,3,01,02,03,04,05,06,07,08,09,10,11,12,1.0,1.0,1.0*30
$GPRMC,151244.289,A,5231.177,N,01321.872,E,038.9,065.6,121218,000.0,W*78
$GPGGA,151245.289,5231.183,N,01321.886,E,1,12,1.0,0.0,M,0.0,M,,*63
$GPGSA,A,3,01,02,03,04,05,06,07,08,09,10,11,12,1.0,1.0,1.0*30
$GPRMC,151245.289,A,5231.183,N,01321.886,E,038.9,065.6,121218,000.0,W*79
$GPGGA,151246.289,5231.190,N,01321.901,E,1,12,1.0,0.0,M,0.0,M,,*6C
$GPGSA,A,3,01,02,03,04,05,06,07,08,09,10,11,12,1.0,1.0,1.0*30
$GPRMC,151246.289,A,5231.190,N,01321.901,E,038.9,065.6,121218,000.0,W*76
$GPGGA,151247.289,5231.196,N,01321.915,E,1,12,1.0,0.0,M,0.0,M,,*6E
$GPGSA,A,3,01,02,03,04,05,06,07,08,09,10,11,12,1.0,1.0,1.0*30
$GPRMC,151247.289,A,5231.196,N,01321.915,E,038.9,072.6,121218,000.0,W*72
$GPGGA,151248.289,5231.201,N,01321.931,E,1,12,1.0,0.0,M,0.0,M,,*6A
$GPGSA,A,3,01,02,03,04,05,06,07,08,09,10,11,12,1.0,1.0,1.0*30
$GPRMC,151248.289,A,5231.201,N,01321.931,E,038.9,072.6,121218,000.0,W*76
$GPGGA,151249.289,5231.206,N,01321.947,E,1,12,1.0,0.0,M,0.0,M,,*6D
$GPGSA,A,3,01,02,03,04,05,06,07,08,09,10,11,12,1.0,1.0,1.0*30
$GPRMC,151249.289,A,5231.206,N,01321.947,E,038.9,072.6,121218,000.0,W*71
$GPGGA,151250.289,5231.211,N,01321.962,E,1,12,1.0,0.0,M,0.0,M,,*64
$GPGSA,A,3,01,02,03,04,05,06,07,08,09,10,11,12,1.0,1.0,1.0*30
$GPRMC,151250.289,A,5231.211,N,01321.962,E,038.9,072.6,121218,000.0,W*78
$GPGGA,151251.289,5231.216,N,01321.978,E,1,12,1.0,0.0,M,0.0,M,,*69
$GPGSA,A,3,01,02,03,04,05,06,07,08,09,10,11,12,1.0,1.0,1.0*30
$GPRMC,151251.289,A,5231.216,N,01321.978,E,038.9,072.6,121218,000.0,W*75
$GPGGA,151252.289,5231.221,N,01321.994,E,1,12,1.0,0.0,M,0.0,M,,*6C
$GPGSA,A,3,01,02,03,04,05,06,07,08,09,10,11,12,1.0,1.0,1.0*30
$GPRMC,151252.289,A,5231.221,N,01321.994,E,038.9,072.6,121218,000.0,W*70
$GPGGA,151253.289,5231.226,N,01322.010,E,1,12,1.0,0.0,M,0.0,M,,*6C
$GPGSA,A,3,01,02,03,04,05,06,07,08,09,10,11,12,1.0,1.0,1.0*30
$GPRMC,151253.289,A,5231.226,N,01322.010,E,038.9,072.6,121218,000.0,W*70
$GPGGA,151254.289,5231.231,N,01322.025,E,1,12,1.0,0.0,M,0.0,M,,*6B
$GPGSA,A,3,01,02,03,04,05,06,07,08,09,10,11,12,1.0,1.0,1.0*30
$GPRMC,151254.289,A,5231.231,N,01322.025,E,038.9,072.6,121218,000.0,W*77
$GPGGA,151255.289,5231.235,N,01322.041,E,1,12,1.0,0.0,M,0.0,M,,*6C
$GPGSA,A,3,01,02,03,04,05,06,07,08,09,10,11,12,1.0,1.0,1.0*30
$GPRMC,151255.289,A,5231.235,N,01322.041,E,038.9,072.6,121218,000.0,W*70
$GPGGA,151256.289,5231.240,N,01322.057,E,1,12,1.0,0.0,M,0.0,M,,*6A
$GPGSA,A,3,01,02,03,04,05,06,07,08,09,10,11,12,1.0,1.0,1.0*30
$GPRMC,151256.289,A,5231.240,N,01322.057,E,038.9,072.6,121218,000.0,W*76
$GPGGA,151257.289,5231.245,N,01322.073,E,1,12,1.0,0.0,M,0.0,M,,*68
$GPGSA,A,3,01,02,03,04,05,06,07,08,09,10,11,12,1.0,1.0,1.0*30
$GPRMC,151257.289,A,5231.245,N,01322.073,E,038.9,072.6,121218,000.0,W*74
$GPGGA,151258.289,5231.250,N,01322.089,E,1,12,1.0,0.0,M,0.0,M,,*66
$GPGSA,A,3,01,02,03,04,05,06,07,08,09,10,11,12,1.0,1.0,1.0*30
$GPRMC,151258.289,A,5231.250,N,01322.089,E,038.9,072.6,121218,000.0,W*7A
$GPGGA,151259.289,5231.255,N,01322.104,E,1,12,1.0,0.0,M,0.0,M,,*66
$GPGSA,A,3,01,02,03,04,05,06,07,08,09,10,11,12,1.0,1.0,1.0*30
$GPRMC,151259.289,A,5231.255,N,01322.104,E,038.9,072.6,121218,000.0,W*7A
$GPGGA,151300.289,5231.260,N,01322.120,E,1,12,1.0,0.0,M,0.0,M,,*6B
$GPGSA,A,3,01,02,03,04,05,06,07,08,09,10,11,12,1.0,1.0,1.0*30
$GPRMC,151300.289,A,5231.260,N,01322.120,E,038.9,072.6,121218,000.0,W*77
$GPGGA,151301.289,5231.265,N,01322.136,E,1,12,1.0,0.0,M,0.0,M,,*68
$GPGSA,A,3,01,02,03,04,05,06,07,08,09,10,11,12,1.0,1.0,1.0*30
$GPRMC,151301.289,A,5231.265,N,01322.136,E,038.9,072.6,121218,000.0,W*74
$GPGGA,151302.289,5231.270,N,01322.152,E,1,12,1.0,0.0,M,0.0,M,,*6D
$GPGSA,A,3,01,02,03,04,05,06,07,08,09,10,11,12,1.0,1.0,1.0*30
$GPRMC,151302.289,A,5231.270,N,01322.152,E,038.9,072.6,121218,000.0,W*71
$GPGGA,151303.289,5231.275,N,01322.168,E,1,12,1.0,0.0,M,0.0,M,,*60
$GPGSA,A,3,01,02,03,04,05,06,07,08,09,10,11,12,1.0,1.0,1.0*30
$GPRMC,151303.289,A,5231.275,N,01322.168,E,038.9,320.3,121218,000.0,W*7D
$GPGGA,151304.289,5231.284,N,01322.160,E,1,12,1.0,0.0,M,0.0,M,,*61
$GPGSA,A,3,01,02,03,04,05,06,07,08,09,10,11,12,1.0,1.0,1.0*30
$GPRMC,151304.289,A,5231.284,N,01322.160,E,038.9,320.3,121218,000.0,W*7C
$GPGGA,151305.289,5231.294,N,01322.152,E,1,12,1.0,0.0,M,0.0,M,,*60
$GPGSA,A,3,01,02,03,04,05,06,07,08,09,10,11,12,1.0,1.0,1.0*30
$GPRMC,151305.289,A,5231.294,N,01322.152,E,038.9,320.3,121218,000.0,W*7D
$GPGGA,151306.289,5231.304,N,01322.143,E,1,12,1.0,0.0,M,0.0,M,,*6B
$GPGSA,A,3,01,02,03,04,05,06,07,08,09,10,11,12,1.0,1.0,1.0*30
$GPRMC,151306.289,A,5231.304,N,01322.143,E,038.9,320.3,121218,000.0,W*76
$GPGGA,151307.289,5231.313,N,01322.135,E,1,12,1.0,0.0,M,0.0,M,,*6D
$GPGSA,A,3,01,02,03,04,05,06,07,08,09,10,11,12,1.0,1.0,1.0*30
$GPRMC,151307.289,A,5231.313,N,01322.135,E,038.9,037.5,121218,000.0,W*73
$GPGGA,151308.289,5231.323,N,01322.143,E,1,12,1.0,0.0,M,0.0,M,,*60
$GPGSA,A,3,01,02,03,04,05,06,07,08,09,10,11,12,1.0,1.0,1.0*30
$GPRMC,151308.289,A,5231.323,N,01322.143,E,038.9,037.5,121218,000.0,W*7E
$GPGGA,151309.289,5231.333,N,01322.151,E,1,12,1.0,0.0,M,0.0,M,,*63
$GPGSA,A,3,01,02,03,04,05,06,07,08,09,10,11,12,1.0,1.0,1.0*30
$GPRMC,151309.289,A,5231.333,N,01322.151,E,038.9,037.5,121218,000.0,W*7D
$GPGGA,151310.289,5231.343,N,01322.158,E,1,12,1.0,0.0,M,0.0,M,,*65
$GPGSA,A,3,01,02,03,04,05,06,07,08,09,10,11,12,1.0,1.0,1.0*30
$GPRMC,151310.289,A,5231.343,N,01322.158,E,038.9,037.5,121218,000.0,W*7B
$GPGGA,151311.289,5231.352,N,01322.166,E,1,12,1.0,0.0,M,0.0,M,,*69
$GPGSA,A,3,01,02,03,04,05,06,07,08,09,10,11,12,1.0,1.0,1.0*30
$GPRMC,151311.289,A,5231.352,N,01322.166,E,038.9,037.5,121218,000.0,W*77
$GPGGA,151312.289,5231.362,N,01322.173,E,1,12,1.0,0.0,M,0.0,M,,*6D
$GPGSA,A,3,01,02,03,04,05,06,07,08,09,10,11,12,1.0,1.0,1.0*30
$GPRMC,151312.289,A,5231.362,N,01322.173,E,038.9,081.0,121218,000.0,W*7B
$GPGGA,151313.289,5231.365,N,01322.190,E,1,12,1.0,0.0,M,0.0,M,,*66
$GPGSA,A,3,01,02,03,04,05,06,07,08,09,10,11,12,1.0,1.0,1.0*30
$GPRMC,151313.289,A,5231.365,N,01322.190,E,038.9,081.0,121218,000.0,W*70
$GPGGA,151314.289,5231.368,N,01322.207,E,1,12,1.0,0.0,M,0.0,M,,*61
$GPGSA,A,3,01,02,03,04,05,06,07,08,09,10,11,12,1.0,1.0,1.0*30
$GPRMC,151314.289,A,5231.368,N,01322.207,E,038.9,081.0,121218,000.0,W*77
$GPGGA,151315.289,5231.370,N,01322.225,E,1,12,1.0,0.0,M,0.0,M,,*69
$GPGSA,A,3,01,02,03,04,05,06,07,08,09,10,11,12,1.0,1.0,1.0*30
$GPRMC,151315.289,A,5231.370,N,01322.225,E,038.9,081.0,121218,000.0,W*7F
$GPGGA,151316.289,5231.373,N,01322.242,E,1,12,1.0,0.0,M,0.0,M,,*68
$GPGSA,A,3,01,02,03,04,05,06,07,08,09,10,11,12,1.0,1.0,1.0*30
$GPRMC,151316.289,A,5231.373,N,01322.242,E,038.9,081.0,121218,000.0,W*7E
$GPGGA,151317.289,5231.376,N,01322.259,E,1,12,1.0,0.0,M,0.0,M,,*66
$GPGSA,A,3,01,02,03,04,05,06,07,08,09,10,11,12,1.0,1.0,1.0*30
$GPRMC,151317.289,A,5231.376,N,01322.259,E,038.9,081.0,121218,000.0,W*70
$GPGGA,151318.289,5231.378,N,01322.276,E,1,12,1.0,0.0,M,0.0,M,,*6A
$GPGSA,A,3,01,02,03,04,05,06,07,08,09,10,11,12,1.0,1.0,1.0*30
$GPRMC,151318.289,A,5231.378,N,01322.276,E,038.9,081.0,121218,000.0,W*7C
$GPGGA,151319.289,5231.381,N,01322.293,E,1,12,1.0,0.0,M,0.0,M,,*66
$GPGSA,A,3,01,02,03,04,05,06,07,08,09,10,11,12,1.0,1.0,1.0*30
$GPRMC,151319.289,A,5231.381,N,01322.293,E,038.9,081.0,121218,000.0,W*70
$GPGGA,151320.289,5231.384,N,01322.310,E,1,12,1.0,0.0,M,0.0,M,,*63
$GPGSA,A,3,01,02,03,04,05,06,07,08,09,10,11,12,1.0,1.0,1.0*30
$GPRMC,151320.289,A,5231.384,N,01322.310,E,038.9,081.0,121218,000.0,W*75
$GPGGA,151321.289,5231.387,N,01322.328,E,1,12,1.0,0.0,M,0.0,M,,*6A
$GPGSA,A,3,01,02,03,04,05,06,07,08,09,10,11,12,1.0,1.0,1.0*30
$GPRMC,151321.289,A,5231.387,N,01322.328,E,038.9,089.8,121218,000.0,W*7C
$GPGGA,151322.289,5231.387,N,01322.345,E,1,12,1.0,0.0,M,0.0,M,,*62
$GPGSA,A,3,01,02,03,04,05,06,07,08,09,10,11,12,1.0,1.0,1.0*30
$GPRMC,151322.289,A,5231.387,N,01322.345,E,038.9,089.8,121218,000.0,W*74
$GPGGA,151323.289,5231.387,N,01322.363,E,1,12,1.0,0.0,M,0.0,M,,*67
$GPGSA,A,3,01,02,03,04,05,06,07,08,09,10,11,12,1.0,1.0,1.0*30
$GPRMC,151323.289,A,5231.387,N,01322.363,E,038.9,089.8,121218,000.0,W*71
$GPGGA,151324.289,5231.387,N,01322.381,E,1,12,1.0,0.0,M,0.0,M,,*6C
$GPGSA,A,3,01,02,03,04,05,06,07,08,09,10,11,12,1.0,1.0,1.0*30
$GPRMC,151324.289,A,5231.387,N,01322.381,E,038.9,089.8,121218,000.0,W*7A
$GPGGA,151325.289,5231.387,N,01322.399,E,1,12,1.0,0.0,M,0.0,M,,*64
$GPGSA,A,3,01,02,03,04,05,06,07,08,09,10,11,12,1.0,1.0,1.0*30
$GPRMC,151325.289,A,5231.387,N,01322.399,E,038.9,094.2,121218,000.0,W*74
$GPGGA,151326.289,5231.386,N,01322.416,E,1,12,1.0,0.0,M,0.0,M,,*66
$GPGSA,A,3,01,02,03,04,05,06,07,08,09,10,11,12,1.0,1.0,1.0*30
$GPRMC,151326.289,A,5231.386,N,01322.416,E,038.9,094.2,121218,000.0,W*76
$GPGGA,151327.289,5231.384,N,01322.434,E,1,12,1.0,0.0,M,0.0,M,,*65
$GPGSA,A,3,01,02,03,04,05,06,07,08,09,10,11,12,1.0,1.0,1.0*30
$GPRMC,151327.289,A,5231.384,N,01322.434,E,038.9,094.2,121218,000.0,W*75
$GPGGA,151328.289,5231.383,N,01322.451,E,1,12,1.0,0.0,M,0.0,M,,*6E
$GPGSA,A,3,01,02,03,04,05,06,07,08,09,10,11,12,1.0,1.0,1.0*30
$GPRMC,151328.289,A,5231.383,N,01322.451,E,038.9,094.2,121218,000.0,W*7E
$GPGGA,151329.289,5231.382,N,01322.469,E,1,12,1.0,0.0,M,0.0,M,,*65
$GPGSA,A,3,01,02,03,04,05,06,07,08,09,10,11,12,1.0,1.0,1.0*30
$GPRMC,151329.289,A,5231.382,N,01322.469,E,038.9,133.7,121218,000.0,W*7C
$GPGGA,151330.289,5231.373,N,01322.479,E,1,12,1.0,0.0,M,0.0,M,,*62
$GPGSA,A,3,01,02,03,04,05,06,07,08,09,10,11,12,1.0,1.0,1.0*30
$GPRMC,151330.289,A,5231.373,N,01322.479,E,038.9,133.7,121218,000.0,W*7B
$GPGGA,151331.289,5231.364,N,01322.488,E,1,12,1.0,0.0,M,0.0,M,,*6B
$GPGSA,A,3,01,02,03,04,05,06,07,08,09,10,11,12,1.0,1.0,1.0*30
$GPRMC,151331.289,A,5231.364,N,01322.488,E,038.9,133.7,121218,000.0,W*72
$GPGGA,151332.289,5231.354,N,01322.498,E,1,12,1.0,0.0,M,0.0,M,,*6A
$GPGSA,A,3,01,02,03,04,05,06,07,08,09,10,11,12,1.0,1.0,1.0*30
$GPRMC,151332.289,A,5231.354,N,01322.498,E,038.9,133.7,121218,000.0,W*73
$GPGGA,151333.289,5231.345,N,01322.507,E,1,12,1.0,0.0,M,0.0,M,,*6C
$GPGSA,A,3,01,02,03,04,05,06,07,08,09,10,11,12,1.0,1.0,1.0*30
$GPRMC,151333.289,A,5231.345,N,01322.507,E,038.9,133.7,121218,000.0,W*75
$GPGGA,151334.289,5231.336,N,01322.517,E,1,12,1.0,0.0,M,0.0,M,,*6E
$GPGSA,A,3,01,02,03,04,05,06,07,08,09,10,11,12,1.0,1.0,1.0*30
$GPRMC,151334.289,A,5231.336,N,01322.517,E,038.9,133.7,121218,000.0,W*77
$GPGGA,151335.289,5231.327,N,01322.526,E,1,12,1.0,0.0,M,0.0,M,,*6D
$GPGSA,A,3,01,02,03,04,05,06,07,08,09,10,11,12,1.0,1.0,1.0*30
$GPRMC,151335.289,A,5231.327,N,01322.526,E,038.9,133.7,121218,000.0,W*74
$GPGGA,151336.289,5231.318,N,01322.536,E,1,12,1.0,0.0,M,0.0,M,,*63
$GPGSA,A,3,01,02,03,04,05,06,07,08,09,10,11,12,1.0,1.0,1.0*30
$GPRMC,151336.289,A,5231.318,N,01322.536,E,038.9,133.7,121218,000.0,W*7A
$GPGGA,151337.289,5231.309,N,01322.545,E,1,12,1.0,0.0,M,0.0,M,,*66
$GPGSA,A,3,01,02,03,04,05,06,07,08,09,10,11,12,1.0,1.0,1.0*30
$GPRMC,151337.289,A,5231.309,N,01322.545,E,038.9,133.7,121218,000.0,W*7F
$GPGGA,151338.289,5231.300,N,01322.555,E,1,12,1.0,0.0,M,0.0,M,,*61
$GPGSA,A,3,01,02,03,04,05,06,07,08,09,10,11,12,1.0,1.0,1.0*30
$GPRMC,151338.289,A,5231.300,N,01322.555,E,038.9,133.7,121218,000.0,W*78
$GPGGA,151339.289,5231.291,N,01322.565,E,1,12,1.0,0.0,M,0.0,M,,*6A
$GPGSA,A,3,01,02,03,04,05,06,07,08,09,10,11,12,1.0,1.0,1.0*30
$GPRMC,151339.289,A,5231.291,N,01322.565,E,038.9,133.7,121218,000.0,W*73
$GPGGA,151340.289,5231.282,N,01322.574,E,1,12,1.0,0.0,M,0.0,M,,*66
$GPGSA,A,3,01,02,03,04,05,06,07,08,09,10,11,12,1.0,1.0,1.0*30
$GPRMC,151340.289,A,5231.282,N,01322.574,E,038.9,141.0,121218,000.0,W*7D
$GPGGA,151341.289,5231.272,N,01322.582,E,1,12,1.0,0.0,M,0.0,M,,*61
$GPGSA,A,3,01,02,03,04,05,06,07,08,09,10,11,12,1.0,1.0,1.0*30
$GPRMC,151341.289,A,5231.272,N,01322.582,E,038.9,141.0,121218,000.0,W*7A
$GPGGA,151342.289,5231.262,N,01322.590,E,1,12,1.0,0.0,M,0.0,M,,*60
$GPGSA,A,3,01,02,03,04,05,06,07,08,09,10,11,12,1.0,1.0,1.0*30
$GPRMC,151342.289,A,5231.262,N,01322.590,E,038.9,141.0,121218,000.0,W*7B
$GPGGA,151343.289,5231.253,N,01322.598,E,1,12,1.0,0.0,M,0.0,M,,*6B
$GPGSA,A,3,01,02,03,04,05,06,07,08,09,10,11,12,1.0,1.0,1.0*30
$GPRMC,151343.289,A,5231.253,N,01322.598,E,038.9,141.0,121218,000.0,W*70
$GPGGA,151344.289,5231.243,N,01322.606,E,1,12,1.0,0.0,M,0.0,M,,*69
$GPGSA,A,3,01,02,03,04,05,06,07,08,09,10,11,12,1.0,1.0,1.0*30
$GPRMC,151344.289,A,5231.243,N,01322.606,E,038.9,141.0,121218,000.0,W*72
$GPGGA,151345.289,5231.233,N,01322.613,E,1,12,1.0,0.0,M,0.0,M,,*6B
$GPGSA,A,3,01,02,03,04,05,06,07,08,09,10,11,12,1.0,1.0,1.0*30
$GPRMC,151345.289,A,5231.233,N,01322.613,E,038.9,141.0,121218,000.0,W*70
$GPGGA,151346.289,5231.224,N,01322.621,E,1,12,1.0,0.0,M,0.0,M,,*6F
$GPGSA,A,3,01,02,03,04,05,06,07,08,09,10,11,12,1.0,1.0,1.0*30
$GPRMC,151346.289,A,5231.224,N,01322.621,E,038.9,141.0,121218,000.0,W*74
$GPGGA,151347.289,5231.214,N,01322.629,E,1,12,1.0,0.0,M,0.0,M,,*65
$GPGSA,A,3,01,02,03,04,05,06,07,08,09,10,11,12,1.0,1.0,1.0*30
$GPRMC,151347.289,A,5231.214,N,01322.629,E,038.9,141.0,121218,000.0,W*7E
$GPGGA,151348.289,5231.204,N,01322.637,E,1,12,1.0,0.0,M,0.0,M,,*64
$GPGSA,A,3,01,02,03,04,05,06,07,08,09,10,11,12,1.0,1.0,1.0*30
$GPRMC,151348.289,A,5231.204,N,01322.637,E,038.9,141.0,121218,000.0,W*7F
$GPGGA,151349.289,5231.195,N,01322.645,E,1,12,1.0,0.0,M,0.0,M,,*6B
$GPGSA,A,3,01,02,03,04,05,06,07,08,09,10,11,12,1.0,1.0,1.0*30
$GPRMC,151349.289,A,5231.195,N,01322.645,E,038.9,141.0,121218,000.0,W*70
$GPGGA,151350.289,5231.185,N,01322.653,E,1,12,1.0,0.0,M,0.0,M,,*65
$GPGSA,A,3,01,02,03,04,05,06,07,08,09,10,11,12,1.0,1.0,1.0*30
$GPRMC,151350.289,A,5231.185,N,01322.653,E,038.9,137.9,121218,000.0,W*76
$GPGGA,151351.289,5231.176,N,01322.661,E,1,12,1.0,0.0,M,0.0,M,,*69
$GPGSA,A,3,01,02,03,04,05,06,07,08,09,10,11,12,1.0,1.0,1.0*30
$GPRMC,151351.289,A,5231.176,N,01322.661,E,038.9,137.9,121218,000.0,W*7A
$GPGGA,151352.289,5231.166,N,01322.670,E,1,12,1.0,0.0,M,0.0,M,,*6B
$GPGSA,A,3,01,02,03,04,05,06,07,08,09,10,11,12,1.0,1.0,1.0*30
$GPRMC,151352.289,A,5231.166,N,01322.670,E,038.9,137.9,121218,000.0,W*78
$GPGGA,151353.289,5231.157,N,01322.679,E,1,12,1.0,0.0,M,0.0,M,,*61
$GPGSA,A,3,01,02,03,04,05,06,07,08,09,10,11,12,1.0,1.0,1.0*30
$GPRMC,151353.289,A,5231.157,N,01322.679,E,038.9,087.7,121218,000.0,W*76
$GPGGA,151354.289,5231.157,N,01322.696,E,1,12,1.0,0.0,M,0.0,M,,*67
$GPGSA,A,3,01,02,03,04,05,06,07,08,09,10,11,12,1.0,1.0,1.0*30
$GPRMC,151354.289,A,5231.157,N,01322.696,E,038.9,087.7,121218,000.0,W*70
$GPGGA,151355.289,5231.158,N,01322.714,E,1,12,1.0,0.0,M,0.0,M,,*62
$GPGSA,A,3,01,02,03,04,05,06,07,08,09,10,11,12,1.0,1.0,1.0*30
$GPRMC,151355.289,A,5231.158,N,01322.714,E,038.9,087.7,121218,000.0,W*75
$GPGGA,151356.289,5231.159,N,01322.732,E,1,12,1.0,0.0,M,0.0,M,,*64
$GPGSA,A,3,01,02,03,04,05,06,07,08,09,10,11,12,1.0,1.0,1.0*30
$GPRMC,151356.289,A,5231.159,N,01322.732,E,038.9,087.7,121218,000.0,W*73
$GPGGA,151357.289,5231.160,N,01322.749,E,1,12,1.0,0.0,M,0.0,M,,*63
$GPGSA,A,3,01,02,03,04,05,06,07,08,09,10,11,12,1.0,1.0,1.0*30
$GPRMC,151357.289,A,5231.160,N,01322.749,E,038.9,087.7,121218,000.0,W*74
$GPGGA,151358.289,5231.160,N,01322.767,E,1,12,1.0,0.0,M,0.0,M,,*60
$GPGSA,A,3,01,02,03,04,05,06,07,08,09,10,11,12,1.0,1.0,1.0*30
$GPRMC,151358.289,A,5231.160,N,01322.767,E,038.9,087.7,121218,000.0,W*77
$GPGGA,151359.289,5231.161,N,01322.785,E,1,12,1.0,0.0,M,0.0,M,,*6C
$GPGSA,A,3,01,02,03,04,05,06,07,08,09,10,11,12,1.0,1.0,1.0*30
$GPRMC,151359.289,A,5231.161,N,01322.785,E,038.9,087.7,121218,000.0,W*7B
$GPGGA,151400.289,5231.162,N,01322.802,E,1,12,1.0,0.0,M,0.0,M,,*64
$GPGSA,A,3,01,02,03,04,05,06,07,08,09,10,11,12,1.0,1.0,1.0*30
$GPRMC,151400.289,A,5231.162,N,01322.802,E,038.9,087.7,121218,000.0,W*73
$GPGGA,151401.289,5231.162,N,01322.820,E,1,12,1.0,0.0,M,0.0,M,,*65
$GPGSA,A,3,01,02,03,04,05,06,07,08,09,10,11,12,1.0,1.0,1.0*30
$GPRMC,151401.289,A,5231.162,N,01322.820,E,038.9,087.7,121218,000.0,W*72
$GPGGA,151402.289,5231.163,N,01322.838,E,1,12,1.0,0.0,M,0.0,M,,*6E
$GPGSA,A,3,01,02,03,04,05,06,07,08,09,10,11,12,1.0,1.0,1.0*30
$GPRMC,151402.289,A,5231.163,N,01322.838,E,038.9,087.7,121218,000.0,W*79
$GPGGA,151403.289,5231.164,N,01322.855,E,1,12,1.0,0.0,M,0.0,M,,*63
$GPGSA,A,3,01,02,03,04,05,06,07,08,09,10,11,12,1.0,1.0,1.0*30
$GPRMC,151403.289,A,5231.164,N,01322.855,E,038.9,089.7,121218,000.0,W*7A
$GPGGA,151404.289,5231.164,N,01322.873,E,1,12,1.0,0.0,M,0.0,M,,*60
$GPGSA,A,3,01,02,03,04,05,06,07,08,09,10,11,12,1.0,1.0,1.0*30
$GPRMC,151404.289,A,5231.164,N,01322.873,E,038.9,089.7,121218,000.0,W*79
$GPGGA,151405.289,5231.164,N,01322.891,E,1,12,1.0,0.0,M,0.0,M,,*6D
$GPGSA,A,3,01,02,03,04,05,06,07,08,09,10,11,12,1.0,1.0,1.0*30
$GPRMC,151405.289,A,5231.164,N,01322.891,E,038.9,089.7,121218,000.0,W*74
$GPGGA,151406.289,5231.164,N,01322.909,E,1,12,1.0,0.0,M,0.0,M,,*6E
$GPGSA,A,3,01,02,03,04,05,06,07,08,09,10,11,12,1.0,1.0,1.0*30
$GPRMC,151406.289,A,5231.164,N,01322.909,E,038.9,089.7,121218,000.0,W*77
$GPGGA,151407.289,5231.164,N,01322.926,E,1,12,1.0,0.0,M,0.0,M,,*62
$GPGSA,A,3,01,02,03,04,05,06,07,08,09,10,11,12,1.0,1.0,1.0*30
$GPRMC,151407.289,A,5231.164,N,01322.926,E,038.9,089.7,121218,000.0,W*7B
$GPGGA,151408.289,5231.164,N,01322.944,E,1,12,1.0,0.0,M,0.0,M,,*69
$GPGSA,A,3,01,02,03,04,05,06,07,08,09,10,11,12,1.0,1.0,1.0*30
$GPRMC,151408.289,A,5231.164,N,01322.944,E,038.9,089.7,121218,000.0,W*70
$GPGGA,151409.289,5231.164,N,01322.962,E,1,12,1.0,0.0,M,0.0,M,,*6C
$GPGSA,A,3,01,02,03,04,05,06,07,08,09,10,11,12,1.0,1.0,1.0*30
$GPRMC,151409.289,A,5231.164,N,01322.962,E,038.9,069.8,121218,000.0,W*74
$GPGGA,151410.289,5231.170,N,01322.977,E,1,12,1.0,0.0,M,0.0,M,,*65
$GPGSA,A,3,01,02,03,04,05,06,07,08,09,10,11,12,1.0,1.0,1.0*30
$GPRMC,151410.289,A,5231.170,N,01322.977,E,038.9,069.8,121218,000.0,W*7D
$GPGGA,151411.289,5231.176,N,01322.992,E,1,12,1.0,0.0,M,0.0,M,,*69
$GPGSA,A,3,01,02,03,04,05,06,07,08,09,10,11,12,1.0,1.0,1.0*30
$GPRMC,151411.289,A,5231.176,N,01322.992,E,038.9,069.8,121218,000.0,W*71
$GPGGA,151412.289,5231.181,N,01323.007,E,1,12,1.0,0.0,M,0.0,M,,*66
$GPGSA,A,3,01,02,03,04,05,06,07,08,09,10,11,12,1.0,1.0,1.0*30
$GPRMC,151412.289,A,5231.181,N,01323.007,E,038.9,069.8,121218,000.0,W*7E
$GPGGA,151413.289,5231.187,N,01323.023,E,1,12,1.0,0.0,M,0.0,M,,*67
$GPGSA,A,3,01,02,03,04,05,06,07,08,09,10,11,12,1.0,1.0,1.0*30
$GPRMC,151413.289,A,5231.187,N,01323.023,E,038.9,069.8,121218,000.0,W*7F
$GPGGA,151414.289,5231.192,N,01323.038,E,1,12,1.0,0.0,M,0.0,M,,*6E
$GPGSA,A,3,01,02,03,04,05,06,07,08,09,10,11,12,1.0,1.0,1.0*30
$GPRMC,151414.289,A,5231.192,N,01323.038,E,038.9,069.8,121218,000.0,W*76
$GPGGA,151415.289,5231.198,N,01323.053,E,1,12,1.0,0.0,M,0.0,M,,*68
$GPGSA,A,3,01,02,03,04,05,06,07,08,09,10,11,12,1.0,1.0,1.0*30
$GPRMC,151415.289,A,5231.198,N,01323.053,E,038.9,066.5,121218,000.0,W*72
$GPGGA,151416.289,5231.204,N,01323.067,E,1,12,1.0,0.0,M,0.0,M,,*6A
$GPGSA,A,3,01,02,03,04,05,06,07,08,09,10,11,12,1.0,1.0,1.0*30
$GPRMC,151416.289,A,5231.204,N,01323.067,E,038.9,066.5,121218,000.0,W*70
$GPGGA,151417.289,5231.210,N,01323.082,E,1,12,1.0,0.0,M,0.0,M,,*65
$GPGSA,A,3,01,02,03,04,05,06,07,08,09,10,11,12,1.0,1.0,1.0*30
$GPRMC,151417.289,A,5231.210,N,01323.082,E,038.9,066.5,121218,000.0,W*7F
$GPGGA,151418.289,5231.217,N,01323.096,E,1,12,1.0,0.0,M,0.0,M,,*68
$GPGSA,A,3,01,02,03,04,05,06,07,08,09,10,11,12,1.0,1.0,1.0*30
$GPRMC,151418.289,A,5231.217,N,01323.096,E,038.9,066.5,121218,000.0,W*72
$GPGGA,151419.289,5231.223,N,01323.111,E,1,12,1.0,0.0,M,0.0,M,,*60
$GPGSA,A,3,01,02,03,04,05,06,07,08,09,10,11,12,1.0,1.0,1.0*30
$GPRMC,151419.289,A,5231.223,N,01323.111,E,038.9,066.5,121218,000.0,W*7A
$GPGGA,151420.289,5231.229,N,01323.125,E,1,12,1.0,0.0,M,0.0,M,,*67
$GPGSA,A,3,01,02,03,04,05,06,07,08,09,10,11,12,1.0,1.0,1.0*30
$GPRMC,151420.289,A,5231.229,N,01323.125,E,038.9,066.5,121218,000.0,W*7D
$GPGGA,151421.289,5231.235,N,01323.140,E,1,12,1.0,0.0,M,0.0,M,,*68
$GPGSA,A,3,01,02,03,04,05,06,07,08,09,10,11,12,1.0,1.0,1.0*30
$GPRMC,151421.289,A,5231.235,N,01323.140,E,038.9,066.5,121218,000.0,W*72
$GPGGA,151422.289,5231.242,N,01323.154,E,1,12,1.0,0.0,M,0.0,M,,*6E
$GPGSA,A,3,01,02,03,04,05,06,07,08,09,10,11,12,1.0,1.0,1.0*30
$GPRMC,151422.289,A,5231.242,N,01323.154,E,038.9,052.7,121218,000.0,W*71
$GPGGA,151423.289,5231.250,N,01323.165,E,1,12,1.0,0.0,M,0.0,M,,*6E
$GPGSA,A,3,01,02,03,04,05,06,07,08,09,10,11,12,1.0,1.0,1.0*30
$GPRMC,151423.289,A,5231.250,N,01323.165,E,038.9,052.7,121218,000.0,W*71
$GPGGA,151424.289,5231.258,N,01323.176,E,1,12,1.0,0.0,M,0.0,M,,*63
$GPGSA,A,3,01,02,03,04,05,06,07,08,09,10,11,12,1.0,1.0,1.0*30
$GPRMC,151424.289,A,5231.258,N,01323.176,E,038.9,052.7,121218,000.0,W*7C
$GPGGA,151425.289,5231.267,N,01323.187,E,1,12,1.0,0.0,M,0.0,M,,*60
$GPGSA,A,3,01,02,03,04,05,06,07,08,09,10,11,12,1.0,1.0,1.0*30
$GPRMC,151425.289,A,5231.267,N,01323.187,E,038.9,052.7,121218,000.0,W*7F
$GPGGA,151426.289,5231.275,N,01323.199,E,1,12,1.0,0.0,M,0.0,M,,*6F
$GPGSA,A,3,01,02,03,04,05,06,07,08,09,10,11,12,1.0,1.0,1.0*30
$GPRMC,151426.289,A,5231.275,N,01323.199,E,038.9,054.0,121218,000.0,W*71
$GPGGA,151427.289,5231.284,N,01323.210,E,1,12,1.0,0.0,M,0.0,M,,*62
$GPGSA,A,3,01,02,03,04,05,06,07,08,09,10,11,12,1.0,1.0,1.0*30
$GPRMC,151427.289,A,5231.284,N,01323.210,E,038.9,054.0,121218,000.0,W*7C
$GPGGA,151428.289,5231.292,N,01323.221,E,1,12,1.0,0.0,M,0.0,M,,*68
$GPGSA,A,3,01,02,03,04,05,06,07,08,09,10,11,12,1.0,1.0,1.0*30
$GPRMC,151428.289,A,5231.292,N,01323.221,E,038.9,054.0,121218,000.0,W*76
$GPGGA,151429.289,5231.300,N,01323.233,E,1,12,1.0,0.0,M,0.0,M,,*60
$GPGSA,A,3,01,02,03,04,05,06,07,08,09,10,11,12,1.0,1.0,1.0*30
$GPRMC,151429.289,A,5231.300,N,01323.233,E,038.9,054.0,121218,000.0,W*7E
$GPGGA,151430.289,5231.308,N,01323.244,E,1,12,1.0,0.0,M,0.0,M,,*60
$GPGSA,A,3,01,02,03,04,05,06,07,08,09,10,11,12,1.0,1.0,1.0*30
$GPRMC,151430.289,A,5231.308,N,01323.244,E,038.9,054.0,121218,000.0,W*7E
$GPGGA,151431.289,5231.317,N,01323.256,E,1,12,1.0,0.0,M,0.0,M,,*6C
$GPGSA,A,3,01,02,03,04,05,06,07,08,09,10,11,12,1.0,1.0,1.0*30
$GPRMC,151431.289,A,5231.317,N,01323.256,E,038.9,083.0,121218,000.0,W*78
$GPGGA,151432.289,5231.319,N,01323.273,E,1,12,1.0,0.0,M,0.0,M,,*66
$GPGSA,A,3,01,02,03,04,05,06,07,08,09,10,11,12,1.0,1.0,1.0*30
$GPRMC,151432.289,A,5231.319,N,01323.273,E,038.9,083.0,121218,000.0,W*72
$GPGGA,151433.289,5231.321,N,01323.290,E,1,12,1.0,0.0,M,0.0,M,,*61
$GPGSA,A,3,01,02,03,04,05,06,07,08,09,10,11,12,1.0,1.0,1.0*30
$GPRMC,151433.289,A,5231.321,N,01323.290,E,038.9,083.0,121218,000.0,W*75
$GPGGA,151434.289,5231.323,N,01323.308,E,1,12,1.0,0.0,M,0.0,M,,*64
$GPGSA,A,3,01,02,03,04,05,06,07,08,09,10,11,12,1.0,1.0,1.0*30
$GPRMC,151434.289,A,5231.323,N,01323.308,E,038.9,083.0,121218,000.0,W*70
$GPGGA,151435.289,5231.325,N,01323.325,E,1,12,1.0,0.0,M,0.0,M,,*6C
$GPGSA,A,3,01,02,03,04,05,06,07,08,09,10,11,12,1.0,1.0,1.0*30
$GPRMC,151435.289,A,5231.325,N,01323.325,E,038.9,083.0,121218,000.0,W*78
$GPGGA,151436.289,5231.327,N,01323.343,E,1,12,1.0,0.0,M,0.0,M,,*6D
$GPGSA,A,3,01,02,03,04,05,06,07,08,09,10,11,12,1.0,1.0,1.0*30
$GPRMC,151436.289,A,5231.327,N,01323.343,E,038.9,083.0,121218,000.0,W*79
$GPGGA,151437.289,5231.329,N,01323.360,E,1,12,1.0,0.0,M,0.0,M,,*63
$GPGSA,A,3,01,02,03,04,05,06,07,08,09,10,11,12,1.0,1.0,1.0*30
$GPRMC,151437.289,A,5231.329,N,01323.360,E,038.9,089.3,121218,000.0,W*7E
$GPGGA,151438.289,5231.329,N,01323.378,E,1,12,1.0,0.0,M,0.0,M,,*65
$GPGSA,A,3,01,02,03,04,05,06,07,08,09,10,11,12,1.0,1.0,1.0*30
$GPRMC,151438.289,A,5231.329,N,01323.378,E,038.9,089.3,121218,000.0,W*78
$GPGGA,151439.289,5231.330,N,01323.396,E,1,12,1.0,0.0,M,0.0,M,,*6C
$GPGSA,A,3,01,02,03,04,05,06,07,08,09,10,11,12,1.0,1.0,1.0*30
$GPRMC,151439.289,A,5231.330,N,01323.396,E,038.9,089.3,121218,000.0,W*71
$GPGGA,151440.289,5231.330,N,01323.413,E,1,12,1.0,0.0,M,0.0,M,,*68
$GPGSA,A,3,01,02,03,04,05,06,07,08,09,10,11,12,1.0,1.0,1.0*30
$GPRMC,151440.289,A,5231.330,N,01323.413,E,038.9,089.3,121218,000.0,W*75
$GPGGA,151441.289,5231.330,N,01323.431,E,1,12,1.0,0.0,M,0.0,M,,*69
$GPGSA,A,3,01,02,03,04,05,06,07,08,09,10,11,12,1.0,1.0,1.0*30
$GPRMC,151441.289,A,5231.330,N,01323.431,E,038.9,089.3,121218,000.0,W*74
$GPGGA,151442.289,5231.330,N,01323.449,E,1,12,1.0,0.0,M,0.0,M,,*65
$GPGSA,A,3,01,02,03,04,05,06,07,08,09,10,11,12,1.0,1.0,1.0*30
$GPRMC,151442.289,A,5231.330,N,01323.449,E,038.9,089.9,121218,000.0,W*72
$GPGGA,151443.289,5231.330,N,01323.466,E,1,12,1.0,0.0,M,0.0,M,,*69
$GPGSA,A,3,01,02,03,04,05,06,07,08,09,10,11,12,1.0,1.0,1.0*30
$GPRMC,151443.289,A,5231.330,N,01323.466,E,038.9,089.9,121218,000.0,W*7E
$GPGGA,151444.289,5231.330,N,01323.484,E,1,12,1.0,0.0,M,0.0,M,,*62
$GPGSA,A,3,01,02,03,04,05,06,07,08,09,10,11,12,1.0,1.0,1.0*30
$GPRMC,151444.289,A,5231.330,N,01323.484,E,038.9,089.9,121218,000.0,W*75
$GPGGA,151445.289,5231.330,N,01323.502,E,1,12,1.0,0.0,M,0.0,M,,*6C
$GPGSA,A,3,01,02,03,04,05,06,07,08,09,10,11,12,1.0,1.0,1.0*30
$GPRMC,151445.289,A,5231.330,N,01323.502,E,038.9,089.9,121218,000.0,W*7B
$GPGGA,151446.289,5231.330,N,01323.520,E,1,12,1.0,0.0,M,0.0,M,,*6F
$GPGSA,A,3,01,02,03,04,05,06,07,08,09,10,11,12,1.0,1.0,1.0*30
$GPRMC,151446.289,A,5231.330,N,01323.520,E,038.9,089.9,121218,000.0,W*78
$GPGGA,151447.289,5231.330,N,01323.537,E,1,12,1.0,0.0,M,0.0,M,,*68
$GPGSA,A,3,01,02,03,04,05,06,07,08,09,10,11,12,1.0,1.0,1.0*30
$GPRMC,151447.289,A,5231.330,N,01323.537,E,038.9,089.9,121218,000.0,W*7F
$GPGGA,151448.289,5231.330,N,01323.555,E,1,12,1.0,0.0,M,0.0,M,,*63
$GPGSA,A,3,01,02,03,04,05,06,07,08,09,10,11,12,1.0,1.0,1.0*30
$GPRMC,151448.289,A,5231.330,N,01323.555,E,038.9,089.9,121218,000.0,W*74
$GPGGA,151449.289,5231.330,N,01323.573,E,1,12,1.0,0.0,M,0.0,M,,*66
$GPGSA,A,3,01,02,03,04,05,06,07,08,09,10,11,12,1.0,1.0,1.0*30
$GPRMC,151449.289,A,5231.330,N,01323.573,E,038.9,096.5,121218,000.0,W*73
$GPGGA,151450.289,5231.328,N,01323.590,E,1,12,1.0,0.0,M,0.0,M,,*6A
$GPGSA,A,3,01,02,03,04,05,06,07,08,09,10,11,12,1.0,1.0,1.0*30
$GPRMC,151450.289,A,5231.328,N,01323.590,E,038.9,096.5,121218,000.0,W*7F
$GPGGA,151451.289,5231.326,N,01323.608,E,1,12,1.0,0.0,M,0.0,M,,*67
$GPGSA,A,3,01,02,03,04,05,06,07,08,09,10,11,12,1.0,1.0,1.0*30
$GPRMC,151451.289,A,5231.326,N,01323.608,E,038.9,096.5,121218,000.0,W*72
$GPGGA,151452.289,5231.325,N,01323.625,E,1,12,1.0,0.0,M,0.0,M,,*68
$GPGSA,A,3,01,02,03,04,05,06,07,08,09,10,11,12,1.0,1.0,1.0*30
$GPRMC,151452.289,A,5231.325,N,01323.625,E,038.9,096.5,121218,000.0,W*7D
$GPGGA,151453.289,5231.323,N,01323.643,E,1,12,1.0,0.0,M,0.0,M,,*6F
$GPGSA,A,3,01,02,03,04,05,06,07,08,09,10,11,12,1.0,1.0,1.0*30
$GPRMC,151453.289,A,5231.323,N,01323.643,E,038.9,096.5,121218,000.0,W*7A
$GPGGA,151454.289,5231.321,N,01323.660,E,1,12,1.0,0.0,M,0.0,M,,*6B
$GPGSA,A,3,01,02,03,04,05,06,07,08,09,10,11,12,1.0,1.0,1.0*30
$GPRMC,151454.289,A,5231.321,N,01323.660,E,038.9,096.5,121218,000.0,W*7E
$GPGGA,151455.289,5231.319,N,01323.677,E,1,12,1.0,0.0,M,0.0,M,,*67
$GPGSA,A,3,01,02,03,04,05,06,07,08,09,10,11,12,1.0,1.0,1.0*30
$GPRMC,151455.289,A,5231.319,N,01323.677,E,038.9,096.5,121218,000.0,W*72
$GPGGA,151456.289,5231.317,N,01323.695,E,1,12,1.0,0.0,M,0.0,M,,*66
$GPGSA,A,3,01,02,03,04,05,06,07,08,09,10,11,12,1.0,1.0,1.0*30
$GPRMC,151456.289,A,5231.317,N,01323.695,E,038.9,097.5,121218,000.0,W*72
$GPGGA,151457.289,5231.314,N,01323.712,E,1,12,1.0,0.0,M,0.0,M,,*6A
$GPGSA,A,3,01,02,03,04,05,06,07,08,09,10,11,12,1.0,1.0,1.0*30
$GPRMC,151457.289,A,5231.314,N,01323.712,E,038.9,097.5,121218,000.0,W*7E
$GPGGA,151458.289,5231.312,N,01323.730,E,1,12,1.0,0.0,M,0.0,M,,*63
$GPGSA,A,3,01,02,03,04,05,06,07,08,09,10,11,12,1.0,1.0,1.0*30
$GPRMC,151458.289,A,5231.312,N,01323.730,E,038.9,097.5,121218,000.0,W*77
$GPGGA,151459.289,5231.310,N,01323.747,E,1,12,1.0,0.0,M,0.0,M,,*60
$GPGSA,A,3,01,02,03,04,05,06,07,08,09,10,11,12,1.0,1.0,1.0*30
$GPRMC,151459.289,A,5231.310,N,01323.747,E,038.9,097.5,121218,000.0,W*74
$GPGGA,151500.289,5231.308,N,01323.764,E,1,12,1.0,0.0,M,0.0,M,,*65
$GPGSA,A,3,01,02,03,04,05,06,07,08,09,10,11,12,1.0,1.0,1.0*30
$GPRMC,151500.289,A,5231.308,N,01323.764,E,038.9,097.5,121218,000.0,W*71
$GPGGA,151501.289,5231.305,N,01323.782,E,1,12,1.0,0.0,M,0.0,M,,*61
$GPGSA,A,3,01,02,03,04,05,06,07,08,09,10,11,12,1.0,1.0,1.0*30
$GPRMC,151501.289,A,5231.305,N,01323.782,E,038.9,097.5,121218,000.0,W*75
$GPGGA,151502.289,5231.303,N,01323.799,E,1,12,1.0,0.0,M,0.0,M,,*6E
$GPGSA,A,3,01,02,03,04,05,06,07,08,09,10,11,12,1.0,1.0,1.0*30
$GPRMC,151502.289,A,5231.303,N,01323.799,E,038.9,097.5,121218,000.0,W*7A
$GPGGA,151503.289,5231.301,N,01323.816,E,1,12,1.0,0.0,M,0.0,M,,*65
$GPGSA,A,3,01,02,03,04,05,06,07,08,09,10,11,12,1.0,1.0,1.0*30
$GPRMC,151503.289,A,5231.301,N,01323.816,E,038.9,109.3,121218,000.0,W*71
$GPGGA,151504.289,5231.295,N,01323.832,E,1,12,1.0,0.0,M,0.0,M,,*68
$GPGSA,A,3,01,02,03,04,05,06,07,08,09,10,11,12,1.0,1.0,1.0*30
$GPRMC,151504.289,A,5231.295,N,01323.832,E,038.9,109.3,121218,000.0,W*7C
$GPGGA,151505.289,5231.290,N,01323.847,E,1,12,1.0,0.0,M,0.0,M,,*6E
$GPGSA,A,3,01,02,03,04,05,06,07,08,09,10,11,12,1.0,1.0,1.0*30
$GPRMC,151505.289,A,5231.290,N,01323.847,E,038.9,109.3,121218,000.0,W*7A
$GPGGA,151506.289,5231.285,N,01323.862,E,1,12,1.0,0.0,M,0.0,M,,*6E
$GPGSA,A,3,01,02,03,04,05,06,07,08,09,10,11,12,1.0,1.0,1.0*30
$GPRMC,151506.289,A,5231.285,N,01323.862,E,038.9,109.3,121218,000.0,W*7A
$GPGGA,151507.289,5231.279,N,01323.878,E,1,12,1.0,0.0,M,0.0,M,,*67
$GPGSA,A,3,01,02,03,04,05,06,07,08,09,10,11,12,1.0,1.0,1.0*30
$GPRMC,151507.289,A,5231.279,N,01323.878,E,038.9,109.3,121218,000.0,W*73
$GPGGA,151508.289,5231.274,N,01323.893,E,1,12,1.0,0.0,M,0.0,M,,*60
$GPGSA,A,3,01,02,03,04,05,06,07,08,09,10,11,12,1.0,1.0,1.0*30
$GPRMC,151508.289,A,5231.274,N,01323.893,E,038.9,109.3,121218,000.0,W*74
$GPGGA,151509.289,5231.269,N,01323.909,E,1,12,1.0,0.0,M,0.0,M,,*6F
$GPGSA,A,3,01,02,03,04,05,06,07,08,09,10,11,12,1.0,1.0,1.0*30
$GPRMC,151509.289,A,5231.269,N,01323.909,E,038.9,098.4,121218,000.0,W*75
$GPGGA,151510.289,5231.266,N,01323.926,E,1,12,1.0,0.0,M,0.0,M,,*65
$GPGSA,A,3,01,02,03,04,05,06,07,08,09,10,11,12,1.0,1.0,1.0*30
$GPRMC,151510.289,A,5231.266,N,01323.926,E,038.9,098.4,121218,000.0,W*7F
$GPGGA,151511.289,5231.264,N,01323.943,E,1,12,1.0,0.0,M,0.0,M,,*65
$GPGSA,A,3,01,02,03,04,05,06,07,08,09,10,11,12,1.0,1.0,1.0*30
$GPRMC,151511.289,A,5231.264,N,01323.943,E,038.9,098.4,121218,000.0,W*7F
$GPGGA,151512.289,5231.261,N,01323.960,E,1,12,1.0,0.0,M,0.0,M,,*62
$GPGSA,A,3,01,02,03,04,05,06,07,08,09,10,11,12,1.0,1.0,1.0*30
$GPRMC,151512.289,A,5231.261,N,01323.960,E,038.9,098.4,121218,000.0,W*78
$GPGGA,151513.289,5231.258,N,01323.978,E,1,12,1.0,0.0,M,0.0,M,,*60
$GPGSA,A,3,01,02,03,04,05,06,07,08,09,10,11,12,1.0,1.0,1.0*30
$GPRMC,151513.289,A,5231.258,N,01323.978,E,038.9,112.7,121218,000.0,W*7A
$GPGGA,151514.289,5231.252,N,01323.992,E,1,12,1.0,0.0,M,0.0,M,,*69
$GPGSA,A,3,01,02,03,04,05,06,07,08,09,10,11,12,1.0,1.0,1.0*30
$GPRMC,151514.289,A,5231.252,N,01323.992,E,038.9,112.7,121218,000.0,W*73
$GPGGA,151515.289,5231.246,N,01324.007,E,1,12,1.0,0.0,M,0.0,M,,*6F
$GPGSA,A,3,01,02,03,04,05,06,07,08,09,10,11,12,1.0,1.0,1.0*30
$GPRMC,151515.289,A,5231.246,N,01324.007,E,038.9,112.7,121218,000.0,W*75
$GPGGA,151516.289,5231.240,N,01324.022,E,1,12,1.0,0.0,M,0.0,M,,*6D
$GPGSA,A,3,01,02,03,04,05,06,07,08,09,10,11,12,1.0,1.0,1.0*30
$GPRMC,151516.289,A,5231.240,N,01324.022,E,038.9,112.7,121218,000.0,W*77
$GPGGA,151517.289,5231.234,N,01324.036,E,1,12,1.0,0.0,M,0.0,M,,*6A
$GPGSA,A,3,01,02,03,04,05,06,07,08,09,10,11,12,1.0,1.0,1.0*30
$GPRMC,151517.289,A,5231.234,N,01324.036,E,038.9,112.7,121218,000.0,W*70
$GPGGA,151518.289,5231.228,N,01324.051,E,1,12,1.0,0.0,M,0.0,M,,*69
$GPGSA,A,3,01,02,03,04,05,06,07,08,09,10,11,12,1.0,1.0,1.0*30
$GPRMC,151518.289,A,5231.228,N,01324.051,E,038.9,112.7,121218,000.0,W*73
$GPGGA,151519.289,5231.222,N,01324.065,E,1,12,1.0,0.0,M,0.0,M,,*65
$GPGSA,A,3,01,02,03,04,05,06,07,08,09,10,11,12,1.0,1.0,1.0*30
$GPRMC,151519.289,A,5231.222,N,01324.065,E,038.9,137.5,121218,000.0,W*7A
$GPGGA,151520.289,5231.212,N,01324.074,E,1,12,1.0,0.0,M,0.0,M,,*6C
$GPGSA,A,3,01,02,03,04,05,06,07,08,09,10,11,12,1.0,1.0,1.0*30
$GPRMC,151520.289,A,5231.212,N,01324.074,E,038.9,137.5,121218,000.0,W*73
$GPGGA,151521.289,5231.203,N,01324.083,E,1,12,1.0,0.0,M,0.0,M,,*65
$GPGSA,A,3,01,02,03,04,05,06,07,08,09,10,11,12,1.0,1.0,1.0*30
$GPRMC,151521.289,A,5231.203,N,01324.083,E,038.9,137.5,121218,000.0,W*7A
$GPGGA,151522.289,5231.194,N,01324.091,E,1,12,1.0,0.0,M,0.0,M,,*68
$GPGSA,A,3,01,02,03,04,05,06,07,08,09,10,11,12,1.0,1.0,1.0*30
$GPRMC,151522.289,A,5231.194,N,01324.091,E,038.9,137.5,121218,000.0,W*77
$GPGGA,151523.289,5231.184,N,01324.100,E,1,12,1.0,0.0,M,0.0,M,,*61
$GPGSA,A,3,01,02,03,04,05,06,07,08,09,10,11,12,1.0,1.0,1.0*30
$GPRMC,151523.289,A,5231.184,N,01324.100,E,038.9,137.5,121218,000.0,W*7E
$GPGGA,151524.289,5231.175,N,01324.109,E,1,12,1.0,0.0,M,0.0,M,,*61
$GPGSA,A,3,01,02,03,04,05,06,07,08,09,10,11,12,1.0,1.0,1.0*30
$GPRMC,151524.289,A,5231.175,N,01324.109,E,038.9,137.5,121218,000.0,W*7E
$GPGGA,151525.289,5231.165,N,01324.117,E,1,12,1.0,0.0,M,0.0,M,,*6E
$GPGSA,A,3,01,02,03,04,05,06,07,08,09,10,11,12,1.0,1.0,1.0*30
$GPRMC,151525.289,A,5231.165,N,01324.117,E,038.9,137.5,121218,000.0,W*71
$GPGGA,151526.289,5231.156,N,01324.126,E,1,12,1.0,0.0,M,0.0,M,,*6F
$GPGSA,A,3,01,02,03,04,05,06,07,08,09,10,11,12,1.0,1.0,1.0*30
$GPRMC,151526.289,A,5231.156,N,01324.126,E,038.9,137.5,121218,000.0,W*70
$GPGGA,151527.289,5231.147,N,01324.135,E,1,12,1.0,0.0,M,0.0,M,,*6C
$GPGSA,A,3,01,02,03,04,05,06,07,08,09,10,11,12,1.0,1.0,1.0*30
$GPRMC,151527.289,A,5231.147,N,01324.135,E,038.9,137.5,121218,000.0,W*73
$GPGGA,151528.289,5231.137,N,01324.143,E,1,12,1.0,0.0,M,0.0,M,,*65
$GPGSA,A,3,01,02,03,04,05,06,07,08,09,10,11,12,1.0,1.0,1.0*30
$GPRMC,151528.289,A,5231.137,N,01324.143,E,038.9,137.5,121218,000.0,W*7A
$GPGGA,151529.289,5231.128,N,01324.152,E,1,12,1.0,0.0,M,0.0,M,,*6A
$GPGSA,A,3,01,02,03,04,05,06,07,08,09,10,11,12,1.0,1.0,1.0*30
$GPRMC,151529.289,A,5231.128,N,01324.152,E,038.9,132.6,121218,000.0,W*73
$GPGGA,151530.289,5231.119,N,01324.162,E,1,12,1.0,0.0,M,0.0,M,,*63
$GPGSA,A,3,01,02,03,04,05,06,07,08,09,10,11,12,1.0,1.0,1.0*30
$GPRMC,151530.289,A,5231.119,N,01324.162,E,038.9,132.6,121218,000.0,W*7A
$GPGGA,151531.289,5231.110,N,01324.172,E,1,12,1.0,0.0,M,0.0,M,,*6A
$GPGSA,A,3,01,02,03,04,05,06,07,08,09,10,11,12,1.0,1.0,1.0*30
$GPRMC,151531.289,A,5231.110,N,01324.172,E,038.9,132.6,121218,000.0,W*73
$GPGGA,151532.289,5231.101,N,01324.181,E,1,12,1.0,0.0,M,0.0,M,,*65
$GPGSA,A,3,01,02,03,04,05,06,07,08,09,10,11,12,1.0,1.0,1.0*30
$GPRMC,151532.289,A,5231.101,N,01324.181,E,038.9,132.6,121218,000.0,W*7C
$GPGGA,151533.289,5231.092,N,01324.191,E,1,12,1.0,0.0,M,0.0,M,,*6E
$GPGSA,A,3,01,02,03,04,05,06,07,08,09,10,11,12,1.0,1.0,1.0*30
$GPRMC,151533.289,A,5231.092,N,01324.191,E,038.9,140.2,121218,000.0,W*76
$GPGGA,151534.289,5231.082,N,01324.199,E,1,12,1.0,0.0,M,0.0,M,,*60
$GPGSA,A,3,01,02,03,04,05,06,07,08,09,10,11,12,1.0,1.0,1.0*30
$GPRMC,151534.289,A,5231.082,N,01324.199,E,038.9,140.2,121218,000.0,W*78
$GPGGA,151535.289,5231.073,N,01324.207,E,1,12,1.0,0.0,M,0.0,M,,*6B
$GPGSA,A,3,01,02,03,04,05,06,07,08,09,10,11,12,1.0,1.0,1.0*30
$GPRMC,151535.289,A,5231.073,N,01324.207,E,038.9,140.2,121218,000.0,W*73
$GPGGA,151536.289,5231.063,N,01324.215,E,1,12,1.0,0.0,M,0.0,M,,*6A
$GPGSA,A,3,01,02,03,04,05,06,07,08,09,10,11,12,1.0,1.0,1.0*30
$GPRMC,151536.289,A,5231.063,N,01324.215,E,038.9,140.2,121218,000.0,W*72
$GPGGA,151537.289,5231.053,N,01324.223,E,1,12,1.0,0.0,M,0.0,M,,*6D
$GPGSA,A,3,01,02,03,04,05,06,07,08,09,10,11,12,1.0,1.0,1.0*30
$GPRMC,151537.289,A,5231.053,N,01324.223,E,038.9,123.6,121218,000.0,W*74
$GPGGA,151538.289,5231.045,N,01324.235,E,1,12,1.0,0.0,M,0.0,M,,*62
$GPGSA,A,3,01,02,03,04,05,06,07,08,09,10,11,12,1.0,1.0,1.0*30
$GPRMC,151538.289,A,5231.045,N,01324.235,E,038.9,123.6,121218,000.0,W*7B
$GPGGA,151539.289,5231.037,N,01324.247,E,1,12,1.0,0.0,M,0.0,M,,*63
$GPGSA,A,3,01,02,03,04,05,06,07,08,09,10,11,12,1.0,1.0,1.0*30
$GPRMC,151539.289,A,5231.037,N,01324.247,E,038.9,123.6,121218,000.0,W*7A
$GPGGA,151540.289,5231.029,N,01324.259,E,1,12,1.0,0.0,M,0.0,M,,*6D
$GPGSA,A,3,01,02,03,04,05,06,07,08,09,10,11,12,1.0,1.0,1.0*30
$GPRMC,151540.289,A,5231.029,N,01324.259,E,038.9,123.6,121218,000.0,W*74
$GPGGA,151541.289,5231.022,N,01324.271,E,1,12,1.0,0.0,M,0.0,M,,*6D
$GPGSA,A,3,01,02,03,04,05,06,07,08,09,10,11,12,1.0,1.0,1.0*30
$GPRMC,151541.289,A,5231.022,N,01324.271,E,038.9,123.6,121218,000.0,W*74
$GPGGA,151542.289,5231.014,N,01324.283,E,1,12,1.0,0.0,M,0.0,M,,*66
$GPGSA,A,3,01,02,03,04,05,06,07,08,09,10,11,12,1.0,1.0,1.0*30
$GPRMC,151542.289,A,5231.014,N,01324.283,E,038.9,123.6,121218,000.0,W*7F
$GPGGA,151543.289,5231.006,N,01324.296,E,1,12,1.0,0.0,M,0.0,M,,*60
$GPGSA,A,3,01,02,03,04,05,06,07,08,09,10,11,12,1.0,1.0,1.0*30
$GPRMC,151543.289,A,5231.006,N,01324.296,E,038.9,123.6,121218,000.0,W*79
$GPGGA,151544.289,5230.998,N,01324.308,E,1,12,1.0,0.0,M,0.0,M,,*6E
$GPGSA,A,3,01,02,03,04,05,06,07,08,09,10,11,12,1.0,1.0,1.0*30
$GPRMC,151544.289,A,5230.998,N,01324.308,E,038.9,123.6,121218,000.0,W*77
$GPGGA,151545.289,5230.990,N,01324.320,E,1,12,1.0,0.0,M,0.0,M,,*6D
$GPGSA,A,3,01,02,03,04,05,06,07,08,09,10,11,12,1.0,1.0,1.0*30
$GPRMC,151545.289,A,5230.990,N,01324.320,E,038.9,123.6,121218,000.0,W*74
$GPGGA,151546.289,5230.982,N,01324.332,E,1,12,1.0,0.0,M,0.0,M,,*6E
$GPGSA,A,3,01,02,03,04,05,06,07,08,09,10,11,12,1.0,1.0,1.0*30
$GPRMC,151546.289,A,5230.982,N,01324.332,E,038.9,123.6,121218,000.0,W*77
$GPGGA,151547.289,5230.974,N,01324.344,E,1,12,1.0,0.0,M,0.0,M,,*67
$GPGSA,A,3,01,02,03,04,05,06,07,08,09,10,11,12,1.0,1.0,1.0*30
$GPRMC,151547.289,A,5230.974,N,01324.344,E,038.9,123.6,121218,000.0,W*7E
$GPGGA,151548.289,5230.966,N,01324.356,E,1,12,1.0,0.0,M,0.0,M,,*68
$GPGSA,A,3,01,02,03,04,05,06,07,08,09,10,11,12,1.0,1.0,1.0*30
$GPRMC,151548.289,A,5230.966,N,01324.356,E,038.9,123.6,121218,000.0,W*71
$GPGGA,151549.289,5230.958,N,01324.368,E,1,12,1.0,0.0,M,0.0,M,,*69
$GPGSA,A,3,01,02,03,04,05,06,07,08,09,10,11,12,1.0,1.0,1.0*30
$GPRMC,151549.289,A,5230.958,N,01324.368,E,038.9,123.6,121218,000.0,W*70
$GPGGA,151550.289,5230.950,N,01324.380,E,1,12,1.0,0.0,M,0.0,M,,*6F
$GPGSA,A,3,01,02,03,04,05,06,07,08,09,10,11,12,1.0,1.0,1.0*30
$GPRMC,151550.289,A,5230.950,N,01324.380,E,038.9,123.6,121218,000.0,W*76
$GPGGA,151551.289,5230.942,N,01324.392,E,1,12,1.0,0.0,M,0.0,M,,*6E
$GPGSA,A,3,01,02,03,04,05,06,07,08,09,10,11,12,1.0,1.0,1.0*30
$GPRMC,151551.289,A,5230.942,N,01324.392,E,038.9,123.6,121218,000.0,W*77
$GPGGA,151552.289,5230.934,N,01324.404,E,1,12,1.0,0.0,M,0.0,M,,*64
$GPGSA,A,3,01,02,03,04,05,06,07,08,09,10,11,12,1.0,1.0,1.0*30
$GPRMC,151552.289,A,5230.934,N,01324.404,E,038.9,145.5,121218,000.0,W*7E
$GPGGA,151553.289,5230.924,N,01324.410,E,1,12,1.0,0.0,M,0.0,M,,*61
$GPGSA,A,3,01,02,03,04,05,06,07,08,09,10,11,12,1.0,1.0,1.0*30
$GPRMC,151553.289,A,5230.924,N,01324.410,E,038.9,128.4,121218,000.0,W*71
$GPGGA,151554.289,5230.916,N,01324.421,E,1,12,1.0,0.0,M,0.0,M,,*65
$GPGSA,A,3,01,02,03,04,05,06,07,08,09,10,11,12,1.0,1.0,1.0*30
$GPRMC,151554.289,A,5230.916,N,01324.421,E,038.9,128.4,121218,000.0,W*75
$GPGGA,151555.289,5230.907,N,01324.432,E,1,12,1.0,0.0,M,0.0,M,,*66
$GPGSA,A,3,01,02,03,04,05,06,07,08,09,10,11,12,1.0,1.0,1.0*30
$GPRMC,151555.289,A,5230.907,N,01324.432,E,038.9,128.4,121218,000.0,W*76
$GPGGA,151556.289,5230.899,N,01324.443,E,1,12,1.0,0.0,M,0.0,M,,*65
$GPGSA,A,3,01,02,03,04,05,06,07,08,09,10,11,12,1.0,1.0,1.0*30
$GPRMC,151556.289,A,5230.899,N,01324.443,E,038.9,128.4,121218,000.0,W*75
$GPGGA,151557.289,5230.890,N,01324.454,E,1,12,1.0,0.0,M,0.0,M,,*6B
$GPGSA,A,3,01,02,03,04,05,06,07,08,09,10,11,12,1.0,1.0,1.0*30
$GPRMC,151557.289,A,5230.890,N,01324.454,E,038.9,128.4,121218,000.0,W*7B
$GPGGA,151558.289,5230.881,N,01324.465,E,1,12,1.0,0.0,M,0.0,M,,*66
$GPGSA,A,3,01,02,03,04,05,06,07,08,09,10,11,12,1.0,1.0,1.0*30
$GPRMC,151558.289,A,5230.881,N,01324.465,E,038.9,128.4,121218,000.0,W*76
$GPGGA,151559.289,5230.873,N,01324.475,E,1,12,1.0,0.0,M,0.0,M,,*6B
$GPGSA,A,3,01,02,03,04,05,06,07,08,09,10,11,12,1.0,1.0,1.0*30
$GPRMC,151559.289,A,5230.873,N,01324.475,E,038.9,128.4,121218,000.0,W*7B
$GPGGA,151600.289,5230.864,N,01324.486,E,1,12,1.0,0.0,M,0.0,M,,*6E
$GPGSA,A,3,01,02,03,04,05,06,07,08,09,10,11,12,1.0,1.0,1.0*30
$GPRMC,151600.289,A,5230.864,N,01324.486,E,038.9,128.4,121218,000.0,W*7E
$GPGGA,151601.289,5230.856,N,01324.497,E,1,12,1.0,0.0,M,0.0,M,,*6E
$GPGSA,A,3,01,02,03,04,05,06,07,08,09,10,11,12,1.0,1.0,1.0*30
$GPRMC,151601.289,A,5230.856,N,01324.497,E,038.9,101.6,121218,000.0,W*77
$GPGGA,151602.289,5230.852,N,01324.514,E,1,12,1.0,0.0,M,0.0,M,,*63
$GPGSA,A,3,01,02,03,04,05,06,07,08,09,10,11,12,1.0,1.0,1.0*30
$GPRMC,151602.289,A,5230.852,N,01324.514,E,038.9,101.6,121218,000.0,W*7A
$GPGGA,151603.289,5230.849,N,01324.531,E,1,12,1.0,0.0,M,0.0,M,,*6F
$GPGSA,A,3,01,02,03,04,05,06,07,08,09,10,11,12,1.0,1.0,1.0*30
$GPRMC,151603.289,A,5230.849,N,01324.531,E,038.9,101.6,121218,000.0,W*76
$GPGGA,151604.289,5230.845,N,01324.547,E,1,12,1.0,0.0,M,0.0,M,,*65
$GPGSA,A,3,01,02,03,04,05,06,07,08,09,10,11,12,1.0,1.0,1.0*30
$GPRMC,151604.289,A,5230.845,N,01324.547,E,038.9,101.6,121218,000.0,W*7C
$GPGGA,151605.289,5230.842,N,01324.564,E,1,12,1.0,0.0,M,0.0,M,,*62
$GPGSA,A,3,01,02,03,04,05,06,07,08,09,10,11,12,1.0,1.0,1.0*30
$GPRMC,151605.289,A,5230.842,N,01324.564,E,038.9,101.6,121218,000.0,W*7B
$GPGGA,151606.289,5230.839,N,01324.581,E,1,12,1.0,0.0,M,0.0,M,,*66
$GPGSA,A,3,01,02,03,04,05,06,07,08,09,10,11,12,1.0,1.0,1.0*30
$GPRMC,151606.289,A,5230.839,N,01324.581,E,038.9,101.6,121218,000.0,W*7F
$GPGGA,151607.289,5230.835,N,01324.598,E,1,12,1.0,0.0,M,0.0,M,,*63
$GPGSA,A,3,01,02,03,04,05,06,07,08,09,10,11,12,1.0,1.0,1.0*30
$GPRMC,151607.289,A,5230.835,N,01324.598,E,038.9,101.6,121218,000.0,W*7A
$GPGGA,151608.289,5230.832,N,01324.615,E,1,12,1.0,0.0,M,0.0,M,,*6D
$GPGSA,A,3,01,02,03,04,05,06,07,08,09,10,11,12,1.0,1.0,1.0*30
$GPRMC,151608.289,A,5230.832,N,01324.615,E,038.9,101.6,121218,000.0,W*74
$GPGGA,151609.289,5230.828,N,01324.631,E,1,12,1.0,0.0,M,0.0,M,,*61
$GPGSA,A,3,01,02,03,04,05,06,07,08,09,10,11,12,1.0,1.0,1.0*30
$GPRMC,151609.289,A,5230.828,N,01324.631,E,038.9,101.6,121218,000.0,W*78
$GPGGA,151610.289,5230.825,N,01324.648,E,1,12,1.0,0.0,M,0.0,M,,*6A
$GPGSA,A,3,01,02,03,04,05,06,07,08,09,10,11,12,1.0,1.0,1.0*30
$GPRMC,151610.289,A,5230.825,N,01324.648,E,038.9,101.6,121218,000.0,W*73
$GPGGA,151611.289,5230.821,N,01324.665,E,1,12,1.0,0.0,M,0.0,M,,*60
$GPGSA,A,3,01,02,03,04,05,06,07,08,09,10,11,12,1.0,1.0,1.0*30
$GPRMC,151611.289,A,5230.821,N,01324.665,E,038.9,101.6,121218,000.0,W*79
$GPGGA,151612.289,5230.818,N,01324.682,E,1,12,1.0,0.0,M,0.0,M,,*60
$GPGSA,A,3,01,02,03,04,05,06,07,08,09,10,11,12,1.0,1.0,1.0*30
$GPRMC,151612.289,A,5230.818,N,01324.682,E,038.9,101.6,121218,000.0,W*79
$GPGGA,151613.289,5230.814,N,01324.699,E,1,12,1.0,0.0,M,0.0,M,,*67
$GPGSA,A,3,01,02,03,04,05,06,07,08,09,10,11,12,1.0,1.0,1.0*30
$GPRMC,151613.289,A,5230.814,N,01324.699,E,038.9,090.7,121218,000.0,W*76
$GPGGA,151614.289,5230.814,N,01324.716,E,1,12,1.0,0.0,M,0.0,M,,*66
$GPGSA,A,3,01,02,03,04,05,06,07,08,09,10,11,12,1.0,1.0,1.0*30
$GPRMC,151614.289,A,5230.814,N,01324.716,E,038.9,090.7,121218,000.0,W*77
$GPGGA,151615.289,5230.814,N,01324.734,E,1,12,1.0,0.0,M,0.0,M,,*67
$GPGSA,A,3,01,02,03,04,05,06,07,08,09,10,11,12,1.0,1.0,1.0*30
$GPRMC,151615.289,A,5230.814,N,01324.734,E,038.9,090.7,121218,000.0,W*76
$GPGGA,151616.289,5230.814,N,01324.752,E,1,12,1.0,0.0,M,0.0,M,,*64
$GPGSA,A,3,01,02,03,04,05,06,07,08,09,10,11,12,1.0,1.0,1.0*30
$GPRMC,151616.289,A,5230.814,N,01324.752,E,038.9,090.7,121218,000.0,W*75
