$GPRMC,125510.835,V,4254.930,N,07302.495,W,36.2,1.03,121218,,E*40
$GPGGA,125511.835,4254.930,N,07302.495,W,0,00,,,M,,M,,*5F
$GPGLL,4254.930,N,07302.495,W,125512.835,V*3C
$GPVTG,1.03,T,,M,36.2,N,67.0,K*54
$GPRMC,125514.835,V,4254.930,N,07302.494,W,70.2,0.92,121218,,E*4E
$GPGGA,125515.835,4254.930,N,07302.494,W,0,00,,,M,,M,,*5A
$GPGLL,4254.930,N,07302.494,W,125516.835,V*39
$GPVTG,0.92,T,,M,70.2,N,130.0,K*6C
$GPRMC,125518.835,V,4254.930,N,07302.492,W,86.3,0.98,121218,,E*46
$GPGGA,125519.835,4254.930,N,07302.492,W,0,00,,,M,,M,,*50
$GPGLL,4254.930,N,07302.492,W,125520.835,V*3A
$GPVTG,0.98,T,,M,86.3,N,159.9,K*68
$GPRMC,125522.835,V,4254.930,N,07302.490,W,26.8,0.89,121218,,E*4C
$GPGGA,125523.835,4254.930,N,07302.490,W,0,00,,,M,,M,,*5B
$GPGLL,4254.930,N,07302.490,W,125524.835,V*3C
$GPVTG,0.89,T,,M,26.8,N,49.6,K*56
$GPRMC,125526.835,V,4254.931,N,07302.488,W,75.7,0.83,121218,,E*43
$GPGGA,125527.835,4254.931,N,07302.488,W,0,00,,,M,,M,,*57
$GPGLL,4254.931,N,07302.488,W,125528.835,V*38
$GPVTG,0.83,T,,M,75.7,N,140.3,K*68
$GPRMC,125530.835,V,4254.931,N,07302.487,W,45.4,0.78,121218,,E*4F
$GPGGA,125531.835,4254.931,N,07302.487,W,0,00,,,M,,M,,*5F
$GPGLL,4254.931,N,07302.487,W,125532.835,V*3C
$GPVTG,0.78,T,,M,45.4,N,84.1,K*57
$GPRMC,125534.835,V,4254.932,N,07302.485,W,0.6,0.69,121218,,E*79
$GPGGA,125535.835,4254.932,N,07302.485,W,0,00,,,M,,M,,*5A
$GPGLL,4254.932,N,07302.485,W,125536.835,V*39
$GPVTG,0.69,T,,M,0.6,N,1.0,K*58
$GPRMC,125538.835,V,4254.933,N,07302.484,W,21.3,0.60,121218,,E*4A
$GPGGA,125539.835,4254.933,N,07302.484,W,0,00,,,M,,M,,*56
$GPGLL,4254.933,N,07302.484,W,125540.835,V*38
$GPVTG,0.60,T,,M,21.3,N,39.5,K*59
$GPRMC,125542.835,V,4254.934,N,07302.482,W,62.7,0.57,121218,,E*41
$GPGGA,125543.835,4254.934,N,07302.482,W,0,00,,,M,,M,,*5A
$GPGLL,4254.934,N,07302.482,W,125544.835,V*3D
$GPVTG,0.57,T,,M,62.7,N,116.0,K*67
$GPRMC,125546.835,V,4254.936,N,07302.481,W,80.0,0.47,121218,,E*4E
$GPGGA,125547.835,4254.936,N,07302.481,W,0,00,,,M,,M,,*5F
$GPGLL,4254.936,N,07302.481,W,125548.835,V*30
$GPVTG,0.47,T,,M,80.0,N,148.1,K*67
$GPRMC,125550.835,V,4254.937,N,07302.480,W,21.9,0.39,121218,,E*42
$GPGGA,125551.835,4254.937,N,07302.480,W,0,00,,,M,,M,,*58
$GPGLL,4254.937,N,07302.480,W,125552.835,V*3B
$GPVTG,0.39,T,,M,21.9,N,40.6,K*52
$GPRMC,125554.835,V,4254.938,N,07302.479,W,10.5,0.46,121218,,E*49
$GPGGA,125555.835,4254.938,N,07302.479,W,0,00,,,M,,M,,*55
$GPGLL,4254.938,N,07302.479,W,125556.835,V*36
$GPVTG,0.46,T,,M,10.5,N,19.4,K*5A
$GPRMC,125558.835,V,4254.940,N,07302.478,W,84.4,0.38,121218,,E*4E
$GPGGA,125559.835,4254.940,N,07302.478,W,0,00,,,M,,M,,*57
$GPGLL,4254.940,N,07302.478,W,125600.835,V*38
$GPVTG,0.38,T,,M,84.4,N,156.4,K*65
$GPRMC,125602.835,V,4254.941,N,07302.477,W,77.2,0.43,121218,,E*4A
$GPGGA,125603.835,4254.941,N,07302.477,W,0,00,,,M,,M,,*55
$GPGLL,4254.941,N,07302.477,W,125604.835,V*32
$GPVTG,0.43,T,,M,77.2,N,143.0,K*63
$GPRMC,125606.835,V,4254.943,N,07302.475,W,75.7,0.49,121218,,E*43
$GPGGA,125607.835,4254.943,N,07302.475,W,0,00,,,M,,M,,*51
$GPGLL,4254.943,N,07302.475,W,125608.835,V*3E
$GPVTG,0.49,T,,M,75.7,N,140.3,K*6E
$GPRMC,125610.835,V,4254.944,N,07302.474,W,7.7,0.40,121218,,E*7E
$GPGGA,125611.835,4254.944,N,07302.474,W,0,00,,,M,,M,,*50
$GPGLL,4254.944,N,07302.474,W,125612.835,V*33
$GPVTG,0.40,T,,M,7.7,N,14.3,K*62
$GPRMC,125614.835,V,4254.946,N,07302.473,W,6.7,0.32,121218,,E*7B
$GPGGA,125615.835,4254.946,N,07302.473,W,0,00,,,M,,M,,*51
$GPGLL,4254.946,N,07302.473,W,125616.835,V*32
$GPVTG,0.32,T,,M,6.7,N,12.5,K*66
$GPRMC,125618.835,V,4254.947,N,07302.472,W,78.4,0.36,121218,,E*49
$GPGGA,125619.835,4254.947,N,07302.472,W,0,00,,,M,,M,,*5D
$GPGLL,4254.947,N,07302.472,W,125620.835,V*37
$GPVTG,0.36,T,,M,78.4,N,145.3,K*6D
$GPRMC,125622.835,V,4254.949,N,07302.472,W,73.1,0.34,121218,,E*42
$GPGGA,125623.835,4254.949,N,07302.472,W,0,00,,,M,,M,,*5A
$GPGLL,4254.949,N,07302.472,W,125624.835,V*3D
$GPVTG,0.34,T,,M,73.1,N,135.5,K*60
$GPRMC,125626.835,V,4254.950,N,07302.471,W,3.9,0.30,121218,,E*76
$GPGGA,125627.835,4254.950,N,07302.471,W,0,00,,,M,,M,,*55
$GPGLL,4254.950,N,07302.471,W,125628.835,V*3A
$GPVTG,0.30,T,,M,3.9,N,7.2,K*5C
$GPRMC,125630.835,V,4254.952,N,07302.470,W,32.7,0.22,121218,,E*4D
$GPGGA,125631.835,4254.952,N,07302.470,W,0,00,,,M,,M,,*51
$GPGLL,4254.952,N,07302.470,W,125632.835,V*32
$GPVTG,0.22,T,,M,32.7,N,60.5,K*55
$GPRMC,125634.835,V,4254.954,N,07302.470,W,68.8,0.11,121218,,E*4F
$GPGGA,125635.835,4254.954,N,07302.470,W,0,00,,,M,,M,,*53
$GPGLL,4254.954,N,07302.470,W,125636.835,V*30
$GPVTG,0.11,T,,M,68.8,N,127.4,K*66
$GPRMC,125638.835,V,4254.956,N,07302.469,W,62.0,0.21,121218,,E*48
$GPGGA,125639.835,4254.956,N,07302.469,W,0,00,,,M,,M,,*55
$GPGLL,4254.956,N,07302.469,W,125640.835,V*3B
$GPVTG,0.21,T,,M,62.0,N,114.7,K*64
$GPRMC,125642.835,V,4254.957,N,07302.468,W,67.8,0.27,121218,,E*4E
$GPGGA,125643.835,4254.957,N,07302.468,W,0,00,,,M,,M,,*58
$GPGLL,4254.957,N,07302.468,W,125644.835,V*3F
$GPVTG,0.27,T,,M,67.8,N,125.6,K*6C
$GPRMC,125646.835,V,4254.959,N,07302.468,W,14.9,0.18,121218,,E*4D
$GPGGA,125647.835,4254.959,N,07302.468,W,0,00,,,M,,M,,*52
$GPGLL,4254.959,N,07302.468,W,125648.835,V*3D
$GPVTG,0.18,T,,M,14.9,N,27.6,K*56
$GPRMC,125650.835,V,4254.961,N,07302.467,W,78.5,0.27,121218,,E*44
$GPGGA,125651.835,4254.961,N,07302.467,W,0,00,,,M,,M,,*51
$GPGLL,4254.961,N,07302.467,W,125652.835,V*32
$GPVTG,0.27,T,,M,78.5,N,145.4,K*6B
$GPRMC,125654.835,V,4254.962,N,07302.467,W,41.7,0.00,121218,,E*4E
$GPGGA,125655.835,4254.962,N,07302.467,W,0,00,,,M,,M,,*56
$GPGLL,4254.962,N,07302.467,W,125656.835,V*35
$GPVTG,0.00,T,,M,41.7,N,77.2,K*50
$GPRMC,125658.835,V,4254.964,N,07302.467,W,62.4,0.14,121218,,E*43
$GPGGA,125659.835,4254.964,N,07302.467,W,0,00,,,M,,M,,*5C
$GPGLL,4254.964,N,07302.467,W,125700.835,V*31
$GPVTG,0.14,T,,M,62.4,N,115.5,K*65
$GPRMC,125702.835,V,4254.966,N,07302.466,W,2.4,0.24,121218,,E*7B
$GPGGA,125703.835,4254.966,N,07302.466,W,0,00,,,M,,M,,*51
$GPGLL,4254.966,N,07302.466,W,125704.835,V*36
$GPVTG,0.24,T,,M,2.4,N,4.5,K*51
$GPRMC,125706.835,V,4254.967,N,07302.465,W,6.8,0.31,121218,,E*71
$GPGGA,125707.835,4254.967,N,07302.465,W,0,00,,,M,,M,,*57
$GPGLL,4254.967,N,07302.465,W,125708.835,V*38
$GPVTG,0.31,T,,M,6.8,N,12.5,K*6A
$GPRMC,125710.835,V,4254.969,N,07302.465,W,16.9,0.24,121218,,E*4C
$GPGGA,125711.835,4254.969,N,07302.465,W,0,00,,,M,,M,,*5E
$GPGLL,4254.969,N,07302.465,W,125712.835,V*3D
$GPVTG,0.24,T,,M,16.9,N,31.3,K*59
$GPRMC,125714.835,V,4254.971,N,07302.464,W,90.8,0.18,121218,,E*40
$GPGGA,125715.835,4254.971,N,07302.464,W,0,00,,,M,,M,,*52
$GPGLL,4254.971,N,07302.464,W,125716.835,V*31
$GPVTG,0.18,T,,M,90.8,N,168.2,K*65
$GPRMC,125718.835,V,4254.972,N,07302.464,W,7.5,0.18,121218,,E*7C
$GPGGA,125719.835,4254.972,N,07302.464,W,0,00,,,M,,M,,*5D
$GPGLL,4254.972,N,07302.464,W,125720.835,V*37
$GPVTG,0.18,T,,M,7.5,N,13.9,K*60
$GPRMC,125722.835,V,4254.974,N,07302.464,W,38.4,0.04,121218,,E*43
$GPGGA,125723.835,4254.974,N,07302.464,W,0,00,,,M,,M,,*52
$GPGLL,4254.974,N,07302.464,W,125724.835,V*35
$GPVTG,0.04,T,,M,38.4,N,71.0,K*5D
$GPRMC,125726.835,V,4254.976,N,07302.463,W,8.8,0.14,121218,,E*7C
$GPGGA,125727.835,4254.976,N,07302.463,W,0,00,,,M,,M,,*53
$GPGLL,4254.976,N,07302.463,W,125728.835,V*3C
$GPVTG,0.14,T,,M,8.8,N,16.3,K*61
$GPRMC,125730.835,V,4254.978,N,07302.463,W,18.4,0.20,121218,,E*4F
$GPGGA,125731.835,4254.978,N,07302.463,W,0,00,,,M,,M,,*5A
$GPGLL,4254.978,N,07302.463,W,125732.835,V*39
$GPVTG,0.20,T,,M,18.4,N,34.0,K*58
$GPRMC,125734.835,V,4254.979,N,07302.462,W,28.1,0.40,121218,,E*4B
$GPGGA,125735.835,4254.979,N,07302.462,W,0,00,,,M,,M,,*5E
$GPGLL,4254.979,N,07302.462,W,125736.835,V*3D
$GPVTG,0.40,T,,M,28.1,N,52.0,K*58
$GPRMC,125738.835,V,4254.981,N,07302.461,W,61.9,0.41,121218,,E*47
$GPGGA,125739.835,4254.981,N,07302.461,W,0,00,,,M,,M,,*56
$GPGLL,4254.981,N,07302.461,W,125740.835,V*38
$GPVTG,0.41,T,,M,61.9,N,114.7,K*68
$GPRMC,125742.835,V,4254.982,N,07302.459,W,75.3,0.48,121218,,E*44
$GPGGA,125743.835,4254.982,N,07302.459,W,0,00,,,M,,M,,*53
$GPGLL,4254.982,N,07302.459,W,125744.835,V*34
$GPVTG,0.48,T,,M,75.3,N,139.4,K*62
$GPRMC,125746.835,V,4254.983,N,07302.458,W,81.5,0.46,121218,,E*43
$GPGGA,125747.835,4254.983,N,07302.458,W,0,00,,,M,,M,,*57
$GPGLL,4254.983,N,07302.458,W,125748.835,V*38
$GPVTG,0.46,T,,M,81.5,N,150.9,K*63
$GPRMC,125750.835,V,4254.985,N,07302.457,W,59.6,0.37,121218,,E*4D
$GPGGA,125751.835,4254.985,N,07302.457,W,0,00,,,M,,M,,*59
$GPGLL,4254.985,N,07302.457,W,125752.835,V*3A
$GPVTG,0.37,T,,M,59.6,N,110.3,K*6D
$GPRMC,125754.835,V,4254.986,N,07302.456,W,73.4,0.29,121218,,E*4E
$GPGGA,125755.835,4254.986,N,07302.456,W,0,00,,,M,,M,,*5F
$GPGLL,4254.986,N,07302.456,W,125756.835,V*3C
$GPVTG,0.29,T,,M,73.4,N,136.0,K*6F
$GPRMC,125758.835,V,4254.988,N,07302.456,W,31.2,0.23,121218,,E*46
$GPGGA,125759.835,4254.988,N,07302.456,W,0,00,,,M,,M,,*5D
$GPGLL,4254.988,N,07302.456,W,125800.835,V*3E
$GPVTG,0.23,T,,M,31.2,N,57.8,K*5B
$GPRMC,125802.835,V,4254.990,N,07302.455,W,23.2,0.15,121218,,E*4A
$GPGGA,125803.835,4254.990,N,07302.455,W,0,00,,,M,,M,,*57
$GPGLL,4254.990,N,07302.455,W,125804.835,V*30
$GPVTG,0.15,T,,M,23.2,N,43.0,K*50
$GPRMC,125806.835,V,4254.992,N,07302.455,W,11.7,0.18,121218,,E*45
$GPGGA,125807.835,4254.992,N,07302.455,W,0,00,,,M,,M,,*51
$GPGLL,4254.992,N,07302.455,W,125808.835,V*3E
$GPVTG,0.18,T,,M,11.7,N,21.7,K*5A
$GPRMC,125810.835,V,4254.993,N,07302.454,W,2.1,0.26,121218,,E*7B
$GPGGA,125811.835,4254.993,N,07302.454,W,0,00,,,M,,M,,*56
$GPGLL,4254.993,N,07302.454,W,125812.835,V*35
$GPVTG,0.26,T,,M,2.1,N,3.9,K*5D
$GPRMC,125814.835,V,4254.995,N,07302.453,W,87.0,0.26,121218,,E*42
$GPGGA,125815.835,4254.995,N,07302.453,W,0,00,,,M,,M,,*53
$GPGLL,4254.995,N,07302.453,W,125816.835,V*30
$GPVTG,0.26,T,,M,87.0,N,161.1,K*6C
$GPRMC,125818.835,V,4254.997,N,07302.453,W,81.8,0.24,121218,,E*40
$GPGGA,125819.835,4254.997,N,07302.453,W,0,00,,,M,,M,,*5D
$GPGLL,4254.997,N,07302.453,W,125820.835,V*37
$GPVTG,0.24,T,,M,81.8,N,151.5,K*67
$GPRMC,125822.835,V,4254.998,N,07302.452,W,59.3,0.33,121218,,E*4F
$GPGGA,125823.835,4254.998,N,07302.452,W,0,00,,,M,,M,,*5A
$GPGLL,4254.998,N,07302.452,W,125824.835,V*3D
$GPVTG,0.33,T,,M,59.3,N,109.9,K*6E
$GPRMC,125826.835,V,4255.000,N,07302.451,W,52.9,0.13,121218,,E*42
$GPGGA,125827.835,4255.000,N,07302.451,W,0,00,,,M,,M,,*54
$GPGLL,4255.000,N,07302.451,W,125828.835,V*3B
$GPVTG,0.13,T,,M,52.9,N,97.9,K*5B
$GPRMC,125830.835,V,4255.002,N,07302.451,W,72.9,0.11,121218,,E*47
$GPGGA,125831.835,4255.002,N,07302.451,W,0,00,,,M,,M,,*51
$GPGLL,4255.002,N,07302.451,W,125832.835,V*32
$GPVTG,0.11,T,,M,72.9,N,135.1,K*6A
$GPRMC,125834.835,V,4255.003,N,07302.451,W,8.6,0.01,121218,,E*71
$GPGGA,125835.835,4255.003,N,07302.451,W,0,00,,,M,,M,,*54
$GPGLL,4255.003,N,07302.451,W,125836.835,V*37
$GPVTG,0.01,T,,M,8.6,N,15.9,K*62
$GPRMC,125838.835,V,4255.005,N,07302.451,W,62.1,0.10,121218,,E*40
$GPGGA,125839.835,4255.005,N,07302.451,W,0,00,,,M,,M,,*5E
$GPGLL,4255.005,N,07302.451,W,125840.835,V*30
$GPVTG,0.10,T,,M,62.1,N,115.0,K*61
$GPRMC,125842.835,V,4255.007,N,07302.450,W,38.4,0.11,121218,,E*45
$GPGGA,125843.835,4255.007,N,07302.450,W,0,00,,,M,,M,,*50
$GPGLL,4255.007,N,07302.450,W,125844.835,V*37
$GPVTG,0.11,T,,M,38.4,N,71.1,K*58
$GPRMC,125846.835,V,4255.009,N,07302.450,W,90.3,0.21,121218,,E*49
$GPGGA,125847.835,4255.009,N,07302.450,W,0,00,,,M,,M,,*5A
$GPGLL,4255.009,N,07302.450,W,125848.835,V*35
$GPVTG,0.21,T,,M,90.3,N,167.3,K*6A
$GPRMC,125850.835,V,4255.010,N,07302.449,W,74.8,0.16,121218,,E*4B
$GPGGA,125851.835,4255.010,N,07302.449,W,0,00,,,M,,M,,*5D
$GPGLL,4255.010,N,07302.449,W,125852.835,V*3E
$GPVTG,0.16,T,,M,74.8,N,138.6,K*60
$GPRMC,125854.835,V,4255.012,N,07302.449,W,10.4,0.09,121218,,E*4D
$GPGGA,125855.835,4255.012,N,07302.449,W,0,00,,,M,,M,,*5B
$GPGLL,4255.012,N,07302.449,W,125856.835,V*38
$GPVTG,0.09,T,,M,10.4,N,19.2,K*56
$GPRMC,125858.835,V,4255.014,N,07302.449,W,37.6,0.02,121218,,E*4B
$GPGGA,125859.835,4255.014,N,07302.449,W,0,00,,,M,,M,,*51
$GPGLL,4255.014,N,07302.449,W,125900.835,V*3C
$GPVTG,0.02,T,,M,37.6,N,69.6,K*59
$GPRMC,125902.835,V,4255.016,N,07302.449,W,20.7,0.00,121218,,E*42
$GPGGA,125903.835,4255.016,N,07302.449,W,0,00,,,M,,M,,*5D
$GPGLL,4255.016,N,07302.449,W,125904.835,V*3A
$GPVTG,0.00,T,,M,20.7,N,38.4,K*5A
$GPRMC,125906.835,V,4255.018,N,07302.449,W,61.5,0.10,121218,,E*4E
$GPGGA,125907.835,4255.018,N,07302.449,W,0,00,,,M,,M,,*57
$GPGLL,4255.018,N,07302.449,W,125908.835,V*38
$GPVTG,0.10,T,,M,61.5,N,114.0,K*67
$GPRMC,125910.835,V,4255.019,N,07302.449,W,16.5,0.10,121218,,E*48
$GPGGA,125911.835,4255.019,N,07302.449,W,0,00,,,M,,M,,*51
$GPGLL,4255.019,N,07302.449,W,125912.835,V*32
$GPVTG,0.10,T,,M,16.5,N,30.5,K*55
$GPRMC,125914.835,V,4255.021,N,07302.448,W,66.0,0.17,121218,,E*43
$GPGGA,125915.835,4255.021,N,07302.448,W,0,00,,,M,,M,,*5F
$GPGLL,4255.021,N,07302.448,W,125916.835,V*3C
$GPVTG,0.17,T,,M,66.0,N,122.2,K*65
$GPRMC,125918.835,V,4255.023,N,07302.447,W,93.2,0.25,121218,,E*4B
$GPGGA,125919.835,4255.023,N,07302.447,W,0,00,,,M,,M,,*5E
$GPGLL,4255.023,N,07302.447,W,125920.835,V*34
$GPVTG,0.25,T,,M,93.2,N,172.5,K*6E
$GPRMC,125922.835,V,4255.024,N,07302.447,W,26.4,0.23,121218,,E*4B
$GPGGA,125923.835,4255.024,N,07302.447,W,0,00,,,M,,M,,*50
$GPGLL,4255.024,N,07302.447,W,125924.835,V*37
$GPVTG,0.23,T,,M,26.4,N,49.0,K*5C
$GPRMC,125926.835,V,4255.026,N,07302.446,W,91.5,0.31,121218,,E*42
$GPGGA,125927.835,4255.026,N,07302.446,W,0,00,,,M,,M,,*57
$GPGLL,4255.026,N,07302.446,W,125928.835,V*38
$GPVTG,0.31,T,,M,91.5,N,169.4,K*65
$GPRMC,125930.835,V,4255.028,N,07302.445,W,23.8,0.40,121218,,E*4A
$GPGGA,125931.835,4255.028,N,07302.445,W,0,00,,,M,,M,,*5D
$GPGLL,4255.028,N,07302.445,W,125932.835,V*3E
$GPVTG,0.40,T,,M,23.8,N,44.1,K*5C
$GPRMC,125934.835,V,4255.029,N,07302.444,W,80.4,0.43,121218,,E*48
$GPGGA,125935.835,4255.029,N,07302.444,W,0,00,,,M,,M,,*59
$GPGLL,4255.029,N,07302.444,W,125936.835,V*3A
$GPVTG,0.43,T,,M,80.4,N,149.0,K*67
$GPRMC,125938.835,V,4255.030,N,07302.442,W,38.5,0.47,121218,,E*4C
$GPGGA,125939.835,4255.030,N,07302.442,W,0,00,,,M,,M,,*5B
$GPGLL,4255.030,N,07302.442,W,125940.835,V*35
$GPVTG,0.47,T,,M,38.5,N,71.3,K*58
$GPRMC,125942.835,V,4255.032,N,07302.442,W,49.0,0.35,121218,,E*45
$GPGGA,125943.835,4255.032,N,07302.442,W,0,00,,,M,,M,,*54
$GPGLL,4255.032,N,07302.442,W,125944.835,V*33
$GPVTG,0.35,T,,M,49.0,N,90.8,K*5A
$GPRMC,125946.835,V,4255.033,N,07302.440,W,45.7,0.45,121218,,E*4E
$GPGGA,125947.835,4255.033,N,07302.440,W,0,00,,,M,,M,,*53
$GPGLL,4255.033,N,07302.440,W,125948.835,V*3C
$GPVTG,0.45,T,,M,45.7,N,84.7,K*5C
$GPRMC,125950.835,V,4255.035,N,07302.439,W,70.1,0.46,121218,,E*42
$GPGGA,125951.835,4255.035,N,07302.439,W,0,00,,,M,,M,,*5C
$GPGLL,4255.035,N,07302.439,W,125952.835,V*3F
$GPVTG,0.46,T,,M,70.1,N,129.8,K*66
$GPRMC,125954.835,V,4255.036,N,07302.438,W,47.6,0.52,121218,,E*42
$GPGGA,125955.835,4255.036,N,07302.438,W,0,00,,,M,,M,,*5A
$GPGLL,4255.036,N,07302.438,W,125956.835,V*39
$GPVTG,0.52,T,,M,47.6,N,88.1,K*53
$GPRMC,125958.835,V,4255.037,N,07302.437,W,31.6,0.49,121218,,E*4B
$GPGGA,125959.835,4255.037,N,07302.437,W,0,00,,,M,,M,,*58
$GPGLL,4255.037,N,07302.437,W,130000.835,V*39
$GPVTG,0.49,T,,M,31.6,N,58.6,K*52
$GPRMC,130002.835,V,4255.039,N,07302.436,W,85.7,0.39,121218,,E*4F
$GPGGA,130003.835,4255.039,N,07302.436,W,0,00,,,M,,M,,*55
$GPGLL,4255.039,N,07302.436,W,130004.835,V*32
$GPVTG,0.39,T,,M,85.7,N,158.8,K*64
$GPRMC,130006.835,V,4255.039,N,07302.434,W,71.6,0.85,121218,,E*44
$GPGGA,130007.835,4255.039,N,07302.434,W,0,00,,,M,,M,,*53
$GPGLL,4255.039,N,07302.434,W,130008.835,V*3C
$GPVTG,0.85,T,,M,71.6,N,132.6,K*6B
$GPRMC,130010.835,V,4255.040,N,07302.432,W,91.6,0.76,121218,,E*49
$GPGGA,130011.835,4255.040,N,07302.432,W,0,00,,,M,,M,,*5C
$GPGLL,4255.040,N,07302.432,W,130012.835,V*3F
$GPVTG,0.76,T,,M,91.6,N,169.7,K*66
$GPRMC,130014.835,V,4255.040,N,07302.431,W,6.6,0.74,121218,,E*72
$GPGGA,130015.835,4255.040,N,07302.431,W,0,00,,,M,,M,,*5B
$GPGLL,4255.040,N,07302.431,W,130016.835,V*38
$GPVTG,0.74,T,,M,6.6,N,12.3,K*63
$GPRMC,130018.835,V,4255.041,N,07302.429,W,17.3,0.81,121218,,E*49
$GPGGA,130019.835,4255.041,N,07302.429,W,0,00,,,M,,M,,*5F
$GPGLL,4255.041,N,07302.429,W,130020.835,V*35
$GPVTG,0.81,T,,M,17.3,N,32.0,K*5D
$GPRMC,130022.835,V,4255.041,N,07302.427,W,21.9,0.78,121218,,E*47
$GPGGA,130023.835,4255.041,N,07302.427,W,0,00,,,M,,M,,*58
$GPGLL,4255.041,N,07302.427,W,130024.835,V*3F
$GPVTG,0.78,T,,M,21.9,N,40.6,K*57
$GPRMC,130026.835,V,4255.042,N,07302.425,W,37.9,0.79,121218,,E*44
$GPGGA,130027.835,4255.042,N,07302.425,W,0,00,,,M,,M,,*5D
$GPGLL,4255.042,N,07302.425,W,130028.835,V*32
$GPVTG,0.79,T,,M,37.9,N,70.1,K*55
$GPRMC,130030.835,V,4255.043,N,07302.424,W,12.4,0.75,121218,,E*45
$GPGGA,130031.835,4255.043,N,07302.424,W,0,00,,,M,,M,,*5A
$GPGLL,4255.043,N,07302.424,W,130032.835,V*39
$GPVTG,0.75,T,,M,12.4,N,23.0,K*54
$GPRMC,130034.835,V,4255.044,N,07302.422,W,92.4,0.65,121218,,E*49
$GPGGA,130035.835,4255.044,N,07302.422,W,0,00,,,M,,M,,*5F
$GPGLL,4255.044,N,07302.422,W,130036.835,V*3C
$GPVTG,0.65,T,,M,92.4,N,171.1,K*6A
$GPRMC,130038.835,V,4255.045,N,07302.421,W,75.3,0.56,121218,,E*49
$GPGGA,130039.835,4255.045,N,07302.421,W,0,00,,,M,,M,,*51
$GPGLL,4255.045,N,07302.421,W,130040.835,V*3F
$GPVTG,0.56,T,,M,75.3,N,139.5,K*6C
$GPRMC,130042.835,V,4255.046,N,07302.419,W,4.5,0.65,121218,,E*7C
$GPGGA,130043.835,4255.046,N,07302.419,W,0,00,,,M,,M,,*54
$GPGLL,4255.046,N,07302.419,W,130044.835,V*33
$GPVTG,0.65,T,,M,4.5,N,8.4,K*5E
$GPRMC,130046.835,V,4255.047,N,07302.418,W,49.4,0.55,121218,,E*43
$GPGGA,130047.835,4255.047,N,07302.418,W,0,00,,,M,,M,,*50
$GPGLL,4255.047,N,07302.418,W,130048.835,V*3F
$GPVTG,0.55,T,,M,49.4,N,91.4,K*55
$GPRMC,130050.835,V,4255.048,N,07302.416,W,94.5,0.62,121218,,E*40
$GPGGA,130051.835,4255.048,N,07302.416,W,0,00,,,M,,M,,*56
$GPGLL,4255.048,N,07302.416,W,130052.835,V*35
$GPVTG,0.62,T,,M,94.5,N,175.0,K*6F
$GPRMC,130054.835,V,4255.049,N,07302.415,W,65.6,0.73,121218,,E*4B
$GPGGA,130055.835,4255.049,N,07302.415,W,0,00,,,M,,M,,*50
$GPGLL,4255.049,N,07302.415,W,130056.835,V*33
$GPVTG,0.73,T,,M,65.6,N,121.5,K*66
$GPRMC,130058.835,V,4255.049,N,07302.413,W,42.4,0.84,121218,,E*4E
$GPGGA,130059.835,4255.049,N,07302.413,W,0,00,,,M,,M,,*5A
$GPGLL,4255.049,N,07302.413,W,130100.835,V*37
$GPVTG,0.84,T,,M,42.4,N,78.5,K*54
$GPRMC,130102.835,V,4255.050,N,07302.411,W,14.4,0.75,121218,,E*47
$GPGGA,130103.835,4255.050,N,07302.411,W,0,00,,,M,,M,,*5E
$GPGLL,4255.050,N,07302.411,W,130104.835,V*39
$GPVTG,0.75,T,,M,14.4,N,26.6,K*51
$GPRMC,130106.835,V,4255.050,N,07302.410,W,38.8,0.84,121218,,E*4E
$GPGGA,130107.835,4255.050,N,07302.410,W,0,00,,,M,,M,,*5B
$GPGLL,4255.050,N,07302.410,W,130108.835,V*34
$GPVTG,0.84,T,,M,38.8,N,71.8,K*51
$GPRMC,130110.835,V,4255.051,N,07302.408,W,11.6,0.81,121218,,E*41
$GPGGA,130111.835,4255.051,N,07302.408,W,0,00,,,M,,M,,*54
$GPGLL,4255.051,N,07302.408,W,130112.835,V*37
$GPVTG,0.81,T,,M,11.6,N,21.4,K*58
$GPRMC,130114.835,V,4255.051,N,07302.406,W,38.1,0.84,121218,,E*42
$GPGGA,130115.835,4255.051,N,07302.406,W,0,00,,,M,,M,,*5E
$GPGLL,4255.051,N,07302.406,W,130116.835,V*3D
$GPVTG,0.84,T,,M,38.1,N,70.6,K*57
$GPRMC,130118.835,V,4255.052,N,07302.404,W,50.6,0.75,121218,,E*48
$GPGGA,130119.835,4255.052,N,07302.404,W,0,00,,,M,,M,,*53
$GPGLL,4255.052,N,07302.404,W,130120.835,V*39
$GPVTG,0.75,T,,M,50.6,N,93.7,K*5C
$GPRMC,130122.835,V,4255.053,N,07302.403,W,10.4,0.71,121218,,E*45
$GPGGA,130123.835,4255.053,N,07302.403,W,0,00,,,M,,M,,*5C
$GPGLL,4255.053,N,07302.403,W,130124.835,V*3B
$GPVTG,0.71,T,,M,10.4,N,19.3,K*58
$GPRMC,130126.835,V,4255.054,N,07302.401,W,72.9,0.67,121218,,E*4A
$GPGGA,130127.835,4255.054,N,07302.401,W,0,00,,,M,,M,,*5D
$GPGLL,4255.054,N,07302.401,W,130128.835,V*32
$GPVTG,0.67,T,,M,72.9,N,135.1,K*6B
$GPRMC,130130.835,V,4255.055,N,07302.400,W,63.3,0.56,121218,,E*45
$GPGGA,130131.835,4255.055,N,07302.400,W,0,00,,,M,,M,,*5A
$GPGLL,4255.055,N,07302.400,W,130132.835,V*39
$GPVTG,0.56,T,,M,63.3,N,117.3,K*61
$GPRMC,130134.835,V,4255.056,N,07302.399,W,71.4,0.53,121218,,E*44
$GPGGA,130135.835,4255.056,N,07302.399,W,0,00,,,M,,M,,*5A
$GPGLL,4255.056,N,07302.399,W,130136.835,V*39
$GPVTG,0.53,T,,M,71.4,N,132.2,K*66
$GPRMC,130138.835,V,4255.057,N,07302.397,W,13.9,0.57,121218,,E*4A
$GPGGA,130139.835,4255.057,N,07302.397,W,0,00,,,M,,M,,*59
$GPGLL,4255.057,N,07302.397,W,130140.835,V*37
$GPVTG,0.57,T,,M,13.9,N,25.8,K*56
$GPRMC,130142.835,V,4255.058,N,07302.396,W,70.3,0.51,121218,,E*40
$GPGGA,130143.835,4255.058,N,07302.396,W,0,00,,,M,,M,,*5A
$GPGLL,4255.058,N,07302.396,W,130144.835,V*3D
$GPVTG,0.51,T,,M,70.3,N,130.2,K*60
$GPRMC,130146.835,V,4255.060,N,07302.395,W,32.6,0.49,121218,,E*46
$GPGGA,130147.835,4255.060,N,07302.395,W,0,00,,,M,,M,,*56
$GPGLL,4255.060,N,07302.395,W,130148.835,V*39
$GPVTG,0.49,T,,M,32.6,N,60.3,K*5F
