$GPGGA,031841.995,3958.509,N,08253.073,W,1,12,1.0,0.0,M,0.0,M,,*75
$GPGSA,A,3,01,02,03,04,05,06,07,08,09,10,11,12,1.0,1.0,1.0*30
$GPRMC,031841.995,A,3958.509,N,08253.073,W,038.9,185.7,131218,000.0,W*60
$GPGGA,031842.995,3958.498,N,08253.074,W,1,12,1.0,0.0,M,0.0,M,,*78
$GPGSA,A,3,01,02,03,04,05,06,07,08,09,10,11,12,1.0,1.0,1.0*30
$GPRMC,031842.995,A,3958.498,N,08253.074,W,038.9,185.7,131218,000.0,W*6D
$GPGGA,031843.995,3958.487,N,08253.075,W,1,12,1.0,0.0,M,0.0,M,,*76
$GPGSA,A,3,01,02,03,04,05,06,07,08,09,10,11,12,1.0,1.0,1.0*30
$GPRMC,031843.995,A,3958.487,N,08253.075,W,038.9,185.7,131218,000.0,W*63
$GPGGA,031844.995,3958.477,N,08253.076,W,1,12,1.0,0.0,M,0.0,M,,*7D
$GPGSA,A,3,01,02,03,04,05,06,07,08,09,10,11,12,1.0,1.0,1.0*30
$GPRMC,031844.995,A,3958.477,N,08253.076,W,038.9,185.7,131218,000.0,W*68
$GPGGA,031845.995,3958.466,N,08253.077,W,1,12,1.0,0.0,M,0.0,M,,*7D
$GPGSA,A,3,01,02,03,04,05,06,07,08,09,10,11,12,1.0,1.0,1.0*30
$GPRMC,031845.995,A,3958.466,N,08253.077,W,038.9,185.7,131218,000.0,W*68
$GPGGA,031846.995,3958.455,N,08253.078,W,1,12,1.0,0.0,M,0.0,M,,*71
$GPGSA,A,3,01,02,03,04,05,06,07,08,09,10,11,12,1.0,1.0,1.0*30
$GPRMC,031846.995,A,3958.455,N,08253.078,W,038.9,185.7,131218,000.0,W*64
$GPGGA,031847.995,3958.444,N,08253.079,W,1,12,1.0,0.0,M,0.0,M,,*71
$GPGSA,A,3,01,02,03,04,05,06,07,08,09,10,11,12,1.0,1.0,1.0*30
$GPRMC,031847.995,A,3958.444,N,08253.079,W,038.9,185.7,131218,000.0,W*64
$GPGGA,031848.995,3958.433,N,08253.081,W,1,12,1.0,0.0,M,0.0,M,,*79
$GPGSA,A,3,01,02,03,04,05,06,07,08,09,10,11,12,1.0,1.0,1.0*30
$GPRMC,031848.995,A,3958.433,N,08253.081,W,038.9,185.7,131218,000.0,W*6C
$GPGGA,031849.995,3958.423,N,08253.082,W,1,12,1.0,0.0,M,0.0,M,,*7A
$GPGSA,A,3,01,02,03,04,05,06,07,08,09,10,11,12,1.0,1.0,1.0*30
$GPRMC,031849.995,A,3958.423,N,08253.082,W,038.9,185.7,131218,000.0,W*6F
$GPGGA,031850.995,3958.412,N,08253.083,W,1,12,1.0,0.0,M,0.0,M,,*71
$GPGSA,A,3,01,02,03,04,05,06,07,08,09,10,11,12,1.0,1.0,1.0*30
$GPRMC,031850.995,A,3958.412,N,08253.083,W,038.9,185.7,131218,000.0,W*64
$GPGGA,031851.995,3958.401,N,08253.084,W,1,12,1.0,0.0,M,0.0,M,,*75
$GPGSA,A,3,01,02,03,04,05,06,07,08,09,10,11,12,1.0,1.0,1.0*30
$GPRMC,031851.995,A,3958.401,N,08253.084,W,038.9,185.7,131218,000.0,W*60
$GPGGA,031852.995,3958.390,N,08253.085,W,1,12,1.0,0.0,M,0.0,M,,*78
$GPGSA,A,3,01,02,03,04,05,06,07,08,09,10,11,12,1.0,1.0,1.0*30
$GPRMC,031852.995,A,3958.390,N,08253.085,W,038.9,185.7,131218,000.0,W*6D
$GPGGA,031853.995,3958.380,N,08253.086,W,1,12,1.0,0.0,M,0.0,M,,*7B
$GPGSA,A,3,01,02,03,04,05,06,07,08,09,10,11,12,1.0,1.0,1.0*30
$GPRMC,031853.995,A,3958.380,N,08253.086,W,038.9,185.7,131218,000.0,W*6E
$GPGGA,031854.995,3958.369,N,08253.087,W,1,12,1.0,0.0,M,0.0,M,,*7A
$GPGSA,A,3,01,02,03,04,05,06,07,08,09,10,11,12,1.0,1.0,1.0*30
$GPRMC,031854.995,A,3958.369,N,08253.087,W,038.9,185.7,131218,000.0,W*6F
$GPGGA,031855.995,3958.358,N,08253.088,W,1,12,1.0,0.0,M,0.0,M,,*76
$GPGSA,A,3,01,02,03,04,05,06,07,08,09,10,11,12,1.0,1.0,1.0*30
$GPRMC,031855.995,A,3958.358,N,08253.088,W,038.9,185.7,131218,000.0,W*63
$GPGGA,031856.995,3958.347,N,08253.089,W,1,12,1.0,0.0,M,0.0,M,,*7A
$GPGSA,A,3,01,02,03,04,05,06,07,08,09,10,11,12,1.0,1.0,1.0*30
$GPRMC,031856.995,A,3958.347,N,08253.089,W,038.9,185.7,131218,000.0,W*6F
$GPGGA,031857.995,3958.337,N,08253.090,W,1,12,1.0,0.0,M,0.0,M,,*74
$GPGSA,A,3,01,02,03,04,05,06,07,08,09,10,11,12,1.0,1.0,1.0*30
$GPRMC,031857.995,A,3958.337,N,08253.090,W,038.9,185.7,131218,000.0,W*61
$GPGGA,031858.995,3958.326,N,08253.091,W,1,12,1.0,0.0,M,0.0,M,,*7A
$GPGSA,A,3,01,02,03,04,05,06,07,08,09,10,11,12,1.0,1.0,1.0*30
$GPRMC,031858.995,A,3958.326,N,08253.091,W,038.9,185.7,131218,000.0,W*6F
$GPGGA,031859.995,3958.315,N,08253.092,W,1,12,1.0,0.0,M,0.0,M,,*78
$GPGSA,A,3,01,02,03,04,05,06,07,08,09,10,11,12,1.0,1.0,1.0*30
$GPRMC,031859.995,A,3958.315,N,08253.092,W,038.9,185.7,131218,000.0,W*6D
$GPGGA,031900.995,3958.304,N,08253.093,W,1,12,1.0,0.0,M,0.0,M,,*74
$GPGSA,A,3,01,02,03,04,05,06,07,08,09,10,11,12,1.0,1.0,1.0*30
$GPRMC,031900.995,A,3958.304,N,08253.093,W,038.9,185.7,131218,000.0,W*61
$GPGGA,031901.995,3958.294,N,08253.094,W,1,12,1.0,0.0,M,0.0,M,,*7A
$GPGSA,A,3,01,02,03,04,05,06,07,08,09,10,11,12,1.0,1.0,1.0*30
$GPRMC,031901.995,A,3958.294,N,08253.094,W,038.9,185.7,131218,000.0,W*6F
$GPGGA,031902.995,3958.283,N,08253.096,W,1,12,1.0,0.0,M,0.0,M,,*7D
$GPGSA,A,3,01,02,03,04,05,06,07,08,09,10,11,12,1.0,1.0,1.0*30
$GPRMC,031902.995,A,3958.283,N,08253.096,W,038.9,185.7,131218,000.0,W*68
$GPGGA,031903.995,3958.272,N,08253.097,W,1,12,1.0,0.0,M,0.0,M,,*73
$GPGSA,A,3,01,02,03,04,05,06,07,08,09,10,11,12,1.0,1.0,1.0*30
$GPRMC,031903.995,A,3958.272,N,08253.097,W,038.9,185.7,131218,000.0,W*66
$GPGGA,031904.995,3958.261,N,08253.098,W,1,12,1.0,0.0,M,0.0,M,,*79
$GPGSA,A,3,01,02,03,04,05,06,07,08,09,10,11,12,1.0,1.0,1.0*30
$GPRMC,031904.995,A,3958.261,N,08253.098,W,038.9,185.7,131218,000.0,W*6C
$GPGGA,031905.995,3958.251,N,08253.099,W,1,12,1.0,0.0,M,0.0,M,,*7A
$GPGSA,A,3,01,02,03,04,05,06,07,08,09,10,11,12,1.0,1.0,1.0*30
$GPRMC,031905.995,A,3958.251,N,08253.099,W,038.9,185.7,131218,000.0,W*6F
$GPGGA,031906.995,3958.240,N,08253.100,W,1,12,1.0,0.0,M,0.0,M,,*78
$GPGSA,A,3,01,02,03,04,05,06,07,08,09,10,11,12,1.0,1.0,1.0*30
$GPRMC,031906.995,A,3958.240,N,08253.100,W,038.9,185.7,131218,000.0,W*6D
$GPGGA,031907.995,3958.229,N,08253.101,W,1,12,1.0,0.0,M,0.0,M,,*77
$GPGSA,A,3,01,02,03,04,05,06,07,08,09,10,11,12,1.0,1.0,1.0*30
$GPRMC,031907.995,A,3958.229,N,08253.101,W,038.9,185.7,131218,000.0,W*62
$GPGGA,031908.995,3958.218,N,08253.102,W,1,12,1.0,0.0,M,0.0,M,,*79
$GPGSA,A,3,01,02,03,04,05,06,07,08,09,10,11,12,1.0,1.0,1.0*30
$GPRMC,031908.995,A,3958.218,N,08253.102,W,038.9,185.7,131218,000.0,W*6C
$GPGGA,031909.995,3958.208,N,08253.103,W,1,12,1.0,0.0,M,0.0,M,,*78
$GPGSA,A,3,01,02,03,04,05,06,07,08,09,10,11,12,1.0,1.0,1.0*30
$GPRMC,031909.995,A,3958.208,N,08253.103,W,038.9,185.7,131218,000.0,W*6D
$GPGGA,031910.995,3958.197,N,08253.104,W,1,12,1.0,0.0,M,0.0,M,,*72
$GPGSA,A,3,01,02,03,04,05,06,07,08,09,10,11,12,1.0,1.0,1.0*30
$GPRMC,031910.995,A,3958.197,N,08253.104,W,038.9,185.7,131218,000.0,W*67
$GPGGA,031911.995,3958.186,N,08253.105,W,1,12,1.0,0.0,M,0.0,M,,*72
$GPGSA,A,3,01,02,03,04,05,06,07,08,09,10,11,12,1.0,1.0,1.0*30
$GPRMC,031911.995,A,3958.186,N,08253.105,W,038.9,185.7,131218,000.0,W*67
$GPGGA,031912.995,3958.175,N,08253.106,W,1,12,1.0,0.0,M,0.0,M,,*7E
$GPGSA,A,3,01,02,03,04,05,06,07,08,09,10,11,12,1.0,1.0,1.0*30
$GPRMC,031912.995,A,3958.175,N,08253.106,W,038.9,185.7,131218,000.0,W*6B
$GPGGA,031913.995,3958.164,N,08253.107,W,1,12,1.0,0.0,M,0.0,M,,*7E
$GPGSA,A,3,01,02,03,04,05,06,07,08,09,10,11,12,1.0,1.0,1.0*30
$GPRMC,031913.995,A,3958.164,N,08253.107,W,038.9,185.7,131218,000.0,W*6B
$GPGGA,031914.995,3958.154,N,08253.108,W,1,12,1.0,0.0,M,0.0,M,,*75
$GPGSA,A,3,01,02,03,04,05,06,07,08,09,10,11,12,1.0,1.0,1.0*30
$GPRMC,031914.995,A,3958.154,N,08253.108,W,038.9,185.7,131218,000.0,W*60
$GPGGA,031915.995,3958.143,N,08253.109,W,1,12,1.0,0.0,M,0.0,M,,*73
$GPGSA,A,3,01,02,03,04,05,06,07,08,09,10,11,12,1.0,1.0,1.0*30
$GPRMC,031915.995,A,3958.143,N,08253.109,W,038.9,185.7,131218,000.0,W*66
$GPGGA,031916.995,3958.132,N,08253.111,W,1,12,1.0,0.0,M,0.0,M,,*7F
$GPGSA,A,3,01,02,03,04,05,06,07,08,09,10,11,12,1.0,1.0,1.0*30
$GPRMC,031916.995,A,3958.132,N,08253.111,W,038.9,185.7,131218,000.0,W*6A
$GPGGA,031917.995,3958.121,N,08253.112,W,1,12,1.0,0.0,M,0.0,M,,*7F
$GPGSA,A,3,01,02,03,04,05,06,07,08,09,10,11,12,1.0,1.0,1.0*30
$GPRMC,031917.995,A,3958.121,N,08253.112,W,038.9,185.7,131218,000.0,W*6A
$GPGGA,031918.995,3958.111,N,08253.113,W,1,12,1.0,0.0,M,0.0,M,,*72
$GPGSA,A,3,01,02,03,04,05,06,07,08,09,10,11,12,1.0,1.0,1.0*30
$GPRMC,031918.995,A,3958.111,N,08253.113,W,038.9,185.7,131218,000.0,W*67
$GPGGA,031919.995,3958.100,N,08253.114,W,1,12,1.0,0.0,M,0.0,M,,*74
$GPGSA,A,3,01,02,03,04,05,06,07,08,09,10,11,12,1.0,1.0,1.0*30
$GPRMC,031919.995,A,3958.100,N,08253.114,W,038.9,185.7,131218,000.0,W*61
$GPGGA,031920.995,3958.089,N,08253.115,W,1,12,1.0,0.0,M,0.0,M,,*7F
$GPGSA,A,3,01,02,03,04,05,06,07,08,09,10,11,12,1.0,1.0,1.0*30
$GPRMC,031920.995,A,3958.089,N,08253.115,W,038.9,185.7,131218,000.0,W*6A
$GPGGA,031921.995,3958.078,N,08253.116,W,1,12,1.0,0.0,M,0.0,M,,*73
$GPGSA,A,3,01,02,03,04,05,06,07,08,09,10,11,12,1.0,1.0,1.0*30
$GPRMC,031921.995,A,3958.078,N,08253.116,W,038.9,185.7,131218,000.0,W*66
$GPGGA,031922.995,3958.068,N,08253.117,W,1,12,1.0,0.0,M,0.0,M,,*70
$GPGSA,A,3,01,02,03,04,05,06,07,08,09,10,11,12,1.0,1.0,1.0*30
$GPRMC,031922.995,A,3958.068,N,08253.117,W,038.9,185.7,131218,000.0,W*65
$GPGGA,031923.995,3958.057,N,08253.118,W,1,12,1.0,0.0,M,0.0,M,,*72
$GPGSA,A,3,01,02,03,04,05,06,07,08,09,10,11,12,1.0,1.0,1.0*30
$GPRMC,031923.995,A,3958.057,N,08253.118,W,038.9,185.7,131218,000.0,W*67
$GPGGA,031924.995,3958.046,N,08253.119,W,1,12,1.0,0.0,M,0.0,M,,*74
$GPGSA,A,3,01,02,03,04,05,06,07,08,09,10,11,12,1.0,1.0,1.0*30
$GPRMC,031924.995,A,3958.046,N,08253.119,W,038.9,185.7,131218,000.0,W*61
$GPGGA,031925.995,3958.035,N,08253.120,W,1,12,1.0,0.0,M,0.0,M,,*7B
$GPGSA,A,3,01,02,03,04,05,06,07,08,09,10,11,12,1.0,1.0,1.0*30
$GPRMC,031925.995,A,3958.035,N,08253.120,W,038.9,185.7,131218,000.0,W*6E
$GPGGA,031926.995,3958.025,N,08253.121,W,1,12,1.0,0.0,M,0.0,M,,*78
$GPGSA,A,3,01,02,03,04,05,06,07,08,09,10,11,12,1.0,1.0,1.0*30
$GPRMC,031926.995,A,3958.025,N,08253.121,W,038.9,185.7,131218,000.0,W*6D
$GPGGA,031927.995,3958.014,N,08253.122,W,1,12,1.0,0.0,M,0.0,M,,*78
$GPGSA,A,3,01,02,03,04,05,06,07,08,09,10,11,12,1.0,1.0,1.0*30
$GPRMC,031927.995,A,3958.014,N,08253.122,W,038.9,185.7,131218,000.0,W*6D
$GPGGA,031928.995,3958.003,N,08253.123,W,1,12,1.0,0.0,M,0.0,M,,*70
$GPGSA,A,3,01,02,03,04,05,06,07,08,09,10,11,12,1.0,1.0,1.0*30
$GPRMC,031928.995,A,3958.003,N,08253.123,W,038.9,185.7,131218,000.0,W*65
$GPGGA,031929.995,3957.992,N,08253.124,W,1,12,1.0,0.0,M,0.0,M,,*78
$GPGSA,A,3,01,02,03,04,05,06,07,08,09,10,11,12,1.0,1.0,1.0*30
$GPRMC,031929.995,A,3957.992,N,08253.124,W,038.9,185.7,131218,000.0,W*6D
$GPGGA,031930.995,3957.982,N,08253.126,W,1,12,1.0,0.0,M,0.0,M,,*73
$GPGSA,A,3,01,02,03,04,05,06,07,08,09,10,11,12,1.0,1.0,1.0*30
$GPRMC,031930.995,A,3957.982,N,08253.126,W,038.9,185.7,131218,000.0,W*66
$GPGGA,031931.995,3957.971,N,08253.127,W,1,12,1.0,0.0,M,0.0,M,,*7F
$GPGSA,A,3,01,02,03,04,05,06,07,08,09,10,11,12,1.0,1.0,1.0*30
$GPRMC,031931.995,A,3957.971,N,08253.127,W,038.9,185.7,131218,000.0,W*6A
$GPGGA,031932.995,3957.960,N,08253.128,W,1,12,1.0,0.0,M,0.0,M,,*73
$GPGSA,A,3,01,02,03,04,05,06,07,08,09,10,11,12,1.0,1.0,1.0*30
$GPRMC,031932.995,A,3957.960,N,08253.128,W,038.9,185.7,131218,000.0,W*66
$GPGGA,031933.995,3957.949,N,08253.129,W,1,12,1.0,0.0,M,0.0,M,,*78
$GPGSA,A,3,01,02,03,04,05,06,07,08,09,10,11,12,1.0,1.0,1.0*30
$GPRMC,031933.995,A,3957.949,N,08253.129,W,038.9,185.7,131218,000.0,W*6D
$GPGGA,031934.995,3957.939,N,08253.130,W,1,12,1.0,0.0,M,0.0,M,,*70
$GPGSA,A,3,01,02,03,04,05,06,07,08,09,10,11,12,1.0,1.0,1.0*30
$GPRMC,031934.995,A,3957.939,N,08253.130,W,038.9,185.7,131218,000.0,W*65
$GPGGA,031935.995,3957.928,N,08253.131,W,1,12,1.0,0.0,M,0.0,M,,*70
$GPGSA,A,3,01,02,03,04,05,06,07,08,09,10,11,12,1.0,1.0,1.0*30
$GPRMC,031935.995,A,3957.928,N,08253.131,W,038.9,185.7,131218,000.0,W*65
$GPGGA,031936.995,3957.917,N,08253.132,W,1,12,1.0,0.0,M,0.0,M,,*7C
$GPGSA,A,3,01,02,03,04,05,06,07,08,09,10,11,12,1.0,1.0,1.0*30
$GPRMC,031936.995,A,3957.917,N,08253.132,W,038.9,185.7,131218,000.0,W*69
$GPGGA,031937.995,3957.906,N,08253.133,W,1,12,1.0,0.0,M,0.0,M,,*7C
$GPGSA,A,3,01,02,03,04,05,06,07,08,09,10,11,12,1.0,1.0,1.0*30
$GPRMC,031937.995,A,3957.906,N,08253.133,W,038.9,185.7,131218,000.0,W*69
$GPGGA,031938.995,3957.895,N,08253.134,W,1,12,1.0,0.0,M,0.0,M,,*7F
$GPGSA,A,3,01,02,03,04,05,06,07,08,09,10,11,12,1.0,1.0,1.0*30
$GPRMC,031938.995,A,3957.895,N,08253.134,W,038.9,185.7,131218,000.0,W*6A
$GPGGA,031939.995,3957.885,N,08253.135,W,1,12,1.0,0.0,M,0.0,M,,*7E
$GPGSA,A,3,01,02,03,04,05,06,07,08,09,10,11,12,1.0,1.0,1.0*30
$GPRMC,031939.995,A,3957.885,N,08253.135,W,038.9,185.7,131218,000.0,W*6B
$GPGGA,031940.995,3957.874,N,08253.136,W,1,12,1.0,0.0,M,0.0,M,,*7D
$GPGSA,A,3,01,02,03,04,05,06,07,08,09,10,11,12,1.0,1.0,1.0*30
$GPRMC,031940.995,A,3957.874,N,08253.136,W,038.9,185.7,131218,000.0,W*68
$GPGGA,031941.995,3957.863,N,08253.137,W,1,12,1.0,0.0,M,0.0,M,,*7B
$GPGSA,A,3,01,02,03,04,05,06,07,08,09,10,11,12,1.0,1.0,1.0*30
$GPRMC,031941.995,A,3957.863,N,08253.137,W,038.9,185.7,131218,000.0,W*6E
$GPGGA,031942.995,3957.852,N,08253.138,W,1,12,1.0,0.0,M,0.0,M,,*75
$GPGSA,A,3,01,02,03,04,05,06,07,08,09,10,11,12,1.0,1.0,1.0*30
$GPRMC,031942.995,A,3957.852,N,08253.138,W,038.9,185.7,131218,000.0,W*60
$GPGGA,031943.995,3957.842,N,08253.139,W,1,12,1.0,0.0,M,0.0,M,,*74
$GPGSA,A,3,01,02,03,04,05,06,07,08,09,10,11,12,1.0,1.0,1.0*30
$GPRMC,031943.995,A,3957.842,N,08253.139,W,038.9,185.7,131218,000.0,W*61
$GPGGA,031944.995,3957.831,N,08253.141,W,1,12,1.0,0.0,M,0.0,M,,*78
$GPGSA,A,3,01,02,03,04,05,06,07,08,09,10,11,12,1.0,1.0,1.0*30
$GPRMC,031944.995,A,3957.831,N,08253.141,W,038.9,185.7,131218,000.0,W*6D
$GPGGA,031945.995,3957.820,N,08253.142,W,1,12,1.0,0.0,M,0.0,M,,*7A
$GPGSA,A,3,01,02,03,04,05,06,07,08,09,10,11,12,1.0,1.0,1.0*30
$GPRMC,031945.995,A,3957.820,N,08253.142,W,038.9,185.7,131218,000.0,W*6F
$GPGGA,031946.995,3957.809,N,08253.143,W,1,12,1.0,0.0,M,0.0,M,,*73
$GPGSA,A,3,01,02,03,04,05,06,07,08,09,10,11,12,1.0,1.0,1.0*30
$GPRMC,031946.995,A,3957.809,N,08253.143,W,038.9,185.7,131218,000.0,W*66
$GPGGA,031947.995,3957.799,N,08253.144,W,1,12,1.0,0.0,M,0.0,M,,*73
$GPGSA,A,3,01,02,03,04,05,06,07,08,09,10,11,12,1.0,1.0,1.0*30
$GPRMC,031947.995,A,3957.799,N,08253.144,W,038.9,185.7,131218,000.0,W*66
$GPGGA,031948.995,3957.788,N,08253.145,W,1,12,1.0,0.0,M,0.0,M,,*7D
$GPGSA,A,3,01,02,03,04,05,06,07,08,09,10,11,12,1.0,1.0,1.0*30
$GPRMC,031948.995,A,3957.788,N,08253.145,W,038.9,185.7,131218,000.0,W*68
$GPGGA,031949.995,3957.777,N,08253.146,W,1,12,1.0,0.0,M,0.0,M,,*7F
$GPGSA,A,3,01,02,03,04,05,06,07,08,09,10,11,12,1.0,1.0,1.0*30
$GPRMC,031949.995,A,3957.777,N,08253.146,W,038.9,185.7,131218,000.0,W*6A
$GPGGA,031950.995,3957.766,N,08253.147,W,1,12,1.0,0.0,M,0.0,M,,*76
$GPGSA,A,3,01,02,03,04,05,06,07,08,09,10,11,12,1.0,1.0,1.0*30
$GPRMC,031950.995,A,3957.766,N,08253.147,W,038.9,185.7,131218,000.0,W*63
$GPGGA,031951.995,3957.756,N,08253.148,W,1,12,1.0,0.0,M,0.0,M,,*7B
$GPGSA,A,3,01,02,03,04,05,06,07,08,09,10,11,12,1.0,1.0,1.0*30
$GPRMC,031951.995,A,3957.756,N,08253.148,W,038.9,185.7,131218,000.0,W*6E
$GPGGA,031952.995,3957.745,N,08253.149,W,1,12,1.0,0.0,M,0.0,M,,*7B
$GPGSA,A,3,01,02,03,04,05,06,07,08,09,10,11,12,1.0,1.0,1.0*30
$GPRMC,031952.995,A,3957.745,N,08253.149,W,038.9,185.7,131218,000.0,W*6E
$GPGGA,031953.995,3957.734,N,08253.150,W,1,12,1.0,0.0,M,0.0,M,,*74
$GPGSA,A,3,01,02,03,04,05,06,07,08,09,10,11,12,1.0,1.0,1.0*30
$GPRMC,031953.995,A,3957.734,N,08253.150,W,038.9,185.7,131218,000.0,W*61
$GPGGA,031954.995,3957.723,N,08253.151,W,1,12,1.0,0.0,M,0.0,M,,*74
$GPGSA,A,3,01,02,03,04,05,06,07,08,09,10,11,12,1.0,1.0,1.0*30
$GPRMC,031954.995,A,3957.723,N,08253.151,W,038.9,185.7,131218,000.0,W*61
$GPGGA,031955.995,3957.713,N,08253.152,W,1,12,1.0,0.0,M,0.0,M,,*75
$GPGSA,A,3,01,02,03,04,05,06,07,08,09,10,11,12,1.0,1.0,1.0*30
$GPRMC,031955.995,A,3957.713,N,08253.152,W,038.9,185.7,131218,000.0,W*60
$GPGGA,031956.995,3957.702,N,08253.153,W,1,12,1.0,0.0,M,0.0,M,,*77
$GPGSA,A,3,01,02,03,04,05,06,07,08,09,10,11,12,1.0,1.0,1.0*30
$GPRMC,031956.995,A,3957.702,N,08253.153,W,038.9,185.7,131218,000.0,W*62
$GPGGA,031957.995,3957.691,N,08253.155,W,1,12,1.0,0.0,M,0.0,M,,*7B
$GPGSA,A,3,01,02,03,04,05,06,07,08,09,10,11,12,1.0,1.0,1.0*30
$GPRMC,031957.995,A,3957.691,N,08253.155,W,038.9,185.7,131218,000.0,W*6E
$GPGGA,031958.995,3957.680,N,08253.156,W,1,12,1.0,0.0,M,0.0,M,,*77
$GPGSA,A,3,01,02,03,04,05,06,07,08,09,10,11,12,1.0,1.0,1.0*30
$GPRMC,031958.995,A,3957.680,N,08253.156,W,038.9,185.7,131218,000.0,W*62
$GPGGA,031959.995,3957.669,N,08253.157,W,1,12,1.0,0.0,M,0.0,M,,*70
$GPGSA,A,3,01,02,03,04,05,06,07,08,09,10,11,12,1.0,1.0,1.0*30
$GPRMC,031959.995,A,3957.669,N,08253.157,W,038.9,185.7,131218,000.0,W*65
$GPGGA,032000.995,3957.659,N,08253.158,W,1,12,1.0,0.0,M,0.0,M,,*7A
$GPGSA,A,3,01,02,03,04,05,06,07,08,09,10,11,12,1.0,1.0,1.0*30
$GPRMC,032000.995,A,3957.659,N,08253.158,W,038.9,185.7,131218,000.0,W*6F
$GPGGA,032001.995,3957.648,N,08253.159,W,1,12,1.0,0.0,M,0.0,M,,*7A
$GPGSA,A,3,01,02,03,04,05,06,07,08,09,10,11,12,1.0,1.0,1.0*30
$GPRMC,032001.995,A,3957.648,N,08253.159,W,038.9,185.7,131218,000.0,W*6F
$GPGGA,032002.995,3957.637,N,08253.160,W,1,12,1.0,0.0,M,0.0,M,,*7B
$GPGSA,A,3,01,02,03,04,05,06,07,08,09,10,11,12,1.0,1.0,1.0*30
$GPRMC,032002.995,A,3957.637,N,08253.160,W,038.9,185.7,131218,000.0,W*6E
$GPGGA,032003.995,3957.626,N,08253.161,W,1,12,1.0,0.0,M,0.0,M,,*7B
$GPGSA,A,3,01,02,03,04,05,06,07,08,09,10,11,12,1.0,1.0,1.0*30
$GPRMC,032003.995,A,3957.626,N,08253.161,W,038.9,185.7,131218,000.0,W*6E
$GPGGA,032004.995,3957.616,N,08253.162,W,1,12,1.0,0.0,M,0.0,M,,*7C
$GPGSA,A,3,01,02,03,04,05,06,07,08,09,10,11,12,1.0,1.0,1.0*30
$GPRMC,032004.995,A,3957.616,N,08253.162,W,038.9,185.7,131218,000.0,W*69
$GPGGA,032005.995,3957.605,N,08253.163,W,1,12,1.0,0.0,M,0.0,M,,*7E
$GPGSA,A,3,01,02,03,04,05,06,07,08,09,10,11,12,1.0,1.0,1.0*30
$GPRMC,032005.995,A,3957.605,N,08253.163,W,038.9,185.7,131218,000.0,W*6B
$GPGGA,032006.995,3957.594,N,08253.164,W,1,12,1.0,0.0,M,0.0,M,,*71
$GPGSA,A,3,01,02,03,04,05,06,07,08,09,10,11,12,1.0,1.0,1.0*30
$GPRMC,032006.995,A,3957.594,N,08253.164,W,038.9,185.7,131218,000.0,W*64
$GPGGA,032007.995,3957.583,N,08253.165,W,1,12,1.0,0.0,M,0.0,M,,*77
$GPGSA,A,3,01,02,03,04,05,06,07,08,09,10,11,12,1.0,1.0,1.0*30
$GPRMC,032007.995,A,3957.583,N,08253.165,W,038.9,185.7,131218,000.0,W*62
$GPGGA,032008.995,3957.573,N,08253.166,W,1,12,1.0,0.0,M,0.0,M,,*74
$GPGSA,A,3,01,02,03,04,05,06,07,08,09,10,11,12,1.0,1.0,1.0*30
$GPRMC,032008.995,A,3957.573,N,08253.166,W,038.9,185.7,131218,000.0,W*61
$GPGGA,032009.995,3957.562,N,08253.167,W,1,12,1.0,0.0,M,0.0,M,,*74
$GPGSA,A,3,01,02,03,04,05,06,07,08,09,10,11,12,1.0,1.0,1.0*30
$GPRMC,032009.995,A,3957.562,N,08253.167,W,038.9,185.7,131218,000.0,W*61
$GPGGA,032010.995,3957.551,N,08253.168,W,1,12,1.0,0.0,M,0.0,M,,*73
$GPGSA,A,3,01,02,03,04,05,06,07,08,09,10,11,12,1.0,1.0,1.0*30
$GPRMC,032010.995,A,3957.551,N,08253.168,W,038.9,185.7,131218,000.0,W*66
$GPGGA,032011.995,3957.540,N,08253.170,W,1,12,1.0,0.0,M,0.0,M,,*7B
$GPGSA,A,3,01,02,03,04,05,06,07,08,09,10,11,12,1.0,1.0,1.0*30
$GPRMC,032011.995,A,3957.540,N,08253.170,W,038.9,185.7,131218,000.0,W*6E
$GPGGA,032012.995,3957.530,N,08253.171,W,1,12,1.0,0.0,M,0.0,M,,*7E
$GPGSA,A,3,01,02,03,04,05,06,07,08,09,10,11,12,1.0,1.0,1.0*30
$GPRMC,032012.995,A,3957.530,N,08253.171,W,038.9,185.7,131218,000.0,W*6B
$GPGGA,032013.995,3957.519,N,08253.172,W,1,12,1.0,0.0,M,0.0,M,,*77
$GPGSA,A,3,01,02,03,04,05,06,07,08,09,10,11,12,1.0,1.0,1.0*30
$GPRMC,032013.995,A,3957.519,N,08253.172,W,038.9,185.7,131218,000.0,W*62
$GPGGA,032014.995,3957.508,N,08253.173,W,1,12,1.0,0.0,M,0.0,M,,*71
$GPGSA,A,3,01,02,03,04,05,06,07,08,09,10,11,12,1.0,1.0,1.0*30
$GPRMC,032014.995,A,3957.508,N,08253.173,W,038.9,185.7,131218,000.0,W*64
$GPGGA,032015.995,3957.497,N,08253.174,W,1,12,1.0,0.0,M,0.0,M,,*70
$GPGSA,A,3,01,02,03,04,05,06,07,08,09,10,11,12,1.0,1.0,1.0*30
$GPRMC,032015.995,A,3957.497,N,08253.174,W,038.9,185.7,131218,000.0,W*65
$GPGGA,032016.995,3957.487,N,08253.175,W,1,12,1.0,0.0,M,0.0,M,,*73
$GPGSA,A,3,01,02,03,04,05,06,07,08,09,10,11,12,1.0,1.0,1.0*30
$GPRMC,032016.995,A,3957.487,N,08253.175,W,038.9,185.7,131218,000.0,W*66
$GPGGA,032017.995,3957.476,N,08253.176,W,1,12,1.0,0.0,M,0.0,M,,*7F
$GPGSA,A,3,01,02,03,04,05,06,07,08,09,10,11,12,1.0,1.0,1.0*30
$GPRMC,032017.995,A,3957.476,N,08253.176,W,038.9,185.7,131218,000.0,W*6A
$GPGGA,032018.995,3957.465,N,08253.177,W,1,12,1.0,0.0,M,0.0,M,,*73
$GPGSA,A,3,01,02,03,04,05,06,07,08,09,10,11,12,1.0,1.0,1.0*30
$GPRMC,032018.995,A,3957.465,N,08253.177,W,038.9,185.7,131218,000.0,W*66
$GPGGA,032019.995,3957.454,N,08253.178,W,1,12,1.0,0.0,M,0.0,M,,*7F
$GPGSA,A,3,01,02,03,04,05,06,07,08,09,10,11,12,1.0,1.0,1.0*30
$GPRMC,032019.995,A,3957.454,N,08253.178,W,038.9,185.7,131218,000.0,W*6A
$GPGGA,032020.995,3957.444,N,08253.179,W,1,12,1.0,0.0,M,0.0,M,,*75
$GPGSA,A,3,01,02,03,04,05,06,07,08,09,10,11,12,1.0,1.0,1.0*30
$GPRMC,032020.995,A,3957.444,N,08253.179,W,038.9,185.7,131218,000.0,W*60
$GPGGA,032021.995,3957.433,N,08253.180,W,1,12,1.0,0.0,M,0.0,M,,*72
$GPGSA,A,3,01,02,03,04,05,06,07,08,09,10,11,12,1.0,1.0,1.0*30
$GPRMC,032021.995,A,3957.433,N,08253.180,W,038.9,185.7,131218,000.0,W*67
$GPGGA,032022.995,3957.422,N,08253.181,W,1,12,1.0,0.0,M,0.0,M,,*70
$GPGSA,A,3,01,02,03,04,05,06,07,08,09,10,11,12,1.0,1.0,1.0*30
$GPRMC,032022.995,A,3957.422,N,08253.181,W,038.9,185.7,131218,000.0,W*65
$GPGGA,032023.995,3957.411,N,08253.182,W,1,12,1.0,0.0,M,0.0,M,,*72
$GPGSA,A,3,01,02,03,04,05,06,07,08,09,10,11,12,1.0,1.0,1.0*30
$GPRMC,032023.995,A,3957.411,N,08253.182,W,038.9,185.7,131218,000.0,W*67
$GPGGA,032024.995,3957.400,N,08253.183,W,1,12,1.0,0.0,M,0.0,M,,*74
$GPGSA,A,3,01,02,03,04,05,06,07,08,09,10,11,12,1.0,1.0,1.0*30
$GPRMC,032024.995,A,3957.400,N,08253.183,W,038.9,185.7,131218,000.0,W*61
$GPGGA,032025.995,3957.390,N,08253.185,W,1,12,1.0,0.0,M,0.0,M,,*7D
$GPGSA,A,3,01,02,03,04,05,06,07,08,09,10,11,12,1.0,1.0,1.0*30
$GPRMC,032025.995,A,3957.390,N,08253.185,W,038.9,185.7,131218,000.0,W*68
$GPGGA,032026.995,3957.379,N,08253.186,W,1,12,1.0,0.0,M,0.0,M,,*7A
$GPGSA,A,3,01,02,03,04,05,06,07,08,09,10,11,12,1.0,1.0,1.0*30
$GPRMC,032026.995,A,3957.379,N,08253.186,W,038.9,184.6,131218,000.0,W*6F
$GPGGA,032027.995,3957.368,N,08253.186,W,1,12,1.0,0.0,M,0.0,M,,*7B
$GPGSA,A,3,01,02,03,04,05,06,07,08,09,10,11,12,1.0,1.0,1.0*30
$GPRMC,032027.995,A,3957.368,N,08253.186,W,038.9,184.6,131218,000.0,W*6E
$GPGGA,032028.995,3957.357,N,08253.187,W,1,12,1.0,0.0,M,0.0,M,,*79
$GPGSA,A,3,01,02,03,04,05,06,07,08,09,10,11,12,1.0,1.0,1.0*30
$GPRMC,032028.995,A,3957.357,N,08253.187,W,038.9,184.6,131218,000.0,W*6C
$GPGGA,032029.995,3957.347,N,08253.188,W,1,12,1.0,0.0,M,0.0,M,,*76
$GPGSA,A,3,01,02,03,04,05,06,07,08,09,10,11,12,1.0,1.0,1.0*30
$GPRMC,032029.995,A,3957.347,N,08253.188,W,038.9,092.0,131218,000.0,W*63
$GPGGA,032030.995,3957.346,N,08253.174,W,1,12,1.0,0.0,M,0.0,M,,*7C
$GPGSA,A,3,01,02,03,04,05,06,07,08,09,10,11,12,1.0,1.0,1.0*30
$GPRMC,032030.995,A,3957.346,N,08253.174,W,038.9,092.0,131218,000.0,W*69
$GPGGA,032031.995,3957.346,N,08253.160,W,1,12,1.0,0.0,M,0.0,M,,*78
$GPGSA,A,3,01,02,03,04,05,06,07,08,09,10,11,12,1.0,1.0,1.0*30
$GPRMC,032031.995,A,3957.346,N,08253.160,W,038.9,092.0,131218,000.0,W*6D
$GPGGA,032032.995,3957.345,N,08253.146,W,1,12,1.0,0.0,M,0.0,M,,*7C
$GPGSA,A,3,01,02,03,04,05,06,07,08,09,10,11,12,1.0,1.0,1.0*30
$GPRMC,032032.995,A,3957.345,N,08253.146,W,038.9,092.0,131218,000.0,W*69
$GPGGA,032033.995,3957.345,N,08253.132,W,1,12,1.0,0.0,M,0.0,M,,*7E
$GPGSA,A,3,01,02,03,04,05,06,07,08,09,10,11,12,1.0,1.0,1.0*30
$GPRMC,032033.995,A,3957.345,N,08253.132,W,038.9,092.0,131218,000.0,W*6B
$GPGGA,032034.995,3957.344,N,08253.118,W,1,12,1.0,0.0,M,0.0,M,,*70
$GPGSA,A,3,01,02,03,04,05,06,07,08,09,10,11,12,1.0,1.0,1.0*30
$GPRMC,032034.995,A,3957.344,N,08253.118,W,038.9,092.0,131218,000.0,W*65
$GPGGA,032035.995,3957.344,N,08253.104,W,1,12,1.0,0.0,M,0.0,M,,*7C
$GPGSA,A,3,01,02,03,04,05,06,07,08,09,10,11,12,1.0,1.0,1.0*30
$GPRMC,032035.995,A,3957.344,N,08253.104,W,038.9,092.0,131218,000.0,W*69
$GPGGA,032036.995,3957.343,N,08253.090,W,1,12,1.0,0.0,M,0.0,M,,*74
$GPGSA,A,3,01,02,03,04,05,06,07,08,09,10,11,12,1.0,1.0,1.0*30
$GPRMC,032036.995,A,3957.343,N,08253.090,W,038.9,092.0,131218,000.0,W*61
$GPGGA,032037.995,3957.343,N,08253.076,W,1,12,1.0,0.0,M,0.0,M,,*7D
$GPGSA,A,3,01,02,03,04,05,06,07,08,09,10,11,12,1.0,1.0,1.0*30
$GPRMC,032037.995,A,3957.343,N,08253.076,W,038.9,092.0,131218,000.0,W*68
$GPGGA,032038.995,3957.342,N,08253.062,W,1,12,1.0,0.0,M,0.0,M,,*76
$GPGSA,A,3,01,02,03,04,05,06,07,08,09,10,11,12,1.0,1.0,1.0*30
$GPRMC,032038.995,A,3957.342,N,08253.062,W,038.9,092.0,131218,000.0,W*63
$GPGGA,032039.995,3957.342,N,08253.048,W,1,12,1.0,0.0,M,0.0,M,,*7F
$GPGSA,A,3,01,02,03,04,05,06,07,08,09,10,11,12,1.0,1.0,1.0*30
$GPRMC,032039.995,A,3957.342,N,08253.048,W,038.9,092.0,131218,000.0,W*6A
$GPGGA,032040.995,3957.341,N,08253.034,W,1,12,1.0,0.0,M,0.0,M,,*79
$GPGSA,A,3,01,02,03,04,05,06,07,08,09,10,11,12,1.0,1.0,1.0*30
$GPRMC,032040.995,A,3957.341,N,08253.034,W,038.9,092.0,131218,000.0,W*6C
$GPGGA,032041.995,3957.341,N,08253.019,W,1,12,1.0,0.0,M,0.0,M,,*77
$GPGSA,A,3,01,02,03,04,05,06,07,08,09,10,11,12,1.0,1.0,1.0*30
$GPRMC,032041.995,A,3957.341,N,08253.019,W,038.9,092.0,131218,000.0,W*62
$GPGGA,032042.995,3957.340,N,08253.005,W,1,12,1.0,0.0,M,0.0,M,,*78
$GPGSA,A,3,01,02,03,04,05,06,07,08,09,10,11,12,1.0,1.0,1.0*30
$GPRMC,032042.995,A,3957.340,N,08253.005,W,038.9,092.0,131218,000.0,W*6D
$GPGGA,032043.995,3957.340,N,08252.991,W,1,12,1.0,0.0,M,0.0,M,,*7C
$GPGSA,A,3,01,02,03,04,05,06,07,08,09,10,11,12,1.0,1.0,1.0*30
$GPRMC,032043.995,A,3957.340,N,08252.991,W,038.9,092.0,131218,000.0,W*69
$GPGGA,032044.995,3957.339,N,08252.977,W,1,12,1.0,0.0,M,0.0,M,,*7D
$GPGSA,A,3,01,02,03,04,05,06,07,08,09,10,11,12,1.0,1.0,1.0*30
$GPRMC,032044.995,A,3957.339,N,08252.977,W,038.9,092.0,131218,000.0,W*68
$GPGGA,032045.995,3957.339,N,08252.963,W,1,12,1.0,0.0,M,0.0,M,,*79
$GPGSA,A,3,01,02,03,04,05,06,07,08,09,10,11,12,1.0,1.0,1.0*30
$GPRMC,032045.995,A,3957.339,N,08252.963,W,038.9,092.0,131218,000.0,W*6C
$GPGGA,032046.995,3957.339,N,08252.949,W,1,12,1.0,0.0,M,0.0,M,,*72
$GPGSA,A,3,01,02,03,04,05,06,07,08,09,10,11,12,1.0,1.0,1.0*30
$GPRMC,032046.995,A,3957.339,N,08252.949,W,038.9,092.0,131218,000.0,W*67
$GPGGA,032047.995,3957.338,N,08252.935,W,1,12,1.0,0.0,M,0.0,M,,*79
$GPGSA,A,3,01,02,03,04,05,06,07,08,09,10,11,12,1.0,1.0,1.0*30
$GPRMC,032047.995,A,3957.338,N,08252.935,W,038.9,092.0,131218,000.0,W*6C
$GPGGA,032048.995,3957.338,N,08252.921,W,1,12,1.0,0.0,M,0.0,M,,*73
$GPGSA,A,3,01,02,03,04,05,06,07,08,09,10,11,12,1.0,1.0,1.0*30
$GPRMC,032048.995,A,3957.338,N,08252.921,W,038.9,092.0,131218,000.0,W*66
$GPGGA,032049.995,3957.337,N,08252.907,W,1,12,1.0,0.0,M,0.0,M,,*79
$GPGSA,A,3,01,02,03,04,05,06,07,08,09,10,11,12,1.0,1.0,1.0*30
$GPRMC,032049.995,A,3957.337,N,08252.907,W,038.9,092.0,131218,000.0,W*6C
$GPGGA,032050.995,3957.337,N,08252.893,W,1,12,1.0,0.0,M,0.0,M,,*7D
$GPGSA,A,3,01,02,03,04,05,06,07,08,09,10,11,12,1.0,1.0,1.0*30
$GPRMC,032050.995,A,3957.337,N,08252.893,W,038.9,092.0,131218,000.0,W*68
$GPGGA,032051.995,3957.336,N,08252.879,W,1,12,1.0,0.0,M,0.0,M,,*79
$GPGSA,A,3,01,02,03,04,05,06,07,08,09,10,11,12,1.0,1.0,1.0*30
$GPRMC,032051.995,A,3957.336,N,08252.879,W,038.9,092.0,131218,000.0,W*6C
$GPGGA,032052.995,3957.336,N,08252.865,W,1,12,1.0,0.0,M,0.0,M,,*77
$GPGSA,A,3,01,02,03,04,05,06,07,08,09,10,11,12,1.0,1.0,1.0*30
$GPRMC,032052.995,A,3957.336,N,08252.865,W,038.9,092.0,131218,000.0,W*62
$GPGGA,032053.995,3957.335,N,08252.851,W,1,12,1.0,0.0,M,0.0,M,,*72
$GPGSA,A,3,01,02,03,04,05,06,07,08,09,10,11,12,1.0,1.0,1.0*30
$GPRMC,032053.995,A,3957.335,N,08252.851,W,038.9,092.0,131218,000.0,W*67
$GPGGA,032054.995,3957.335,N,08252.837,W,1,12,1.0,0.0,M,0.0,M,,*75
$GPGSA,A,3,01,02,03,04,05,06,07,08,09,10,11,12,1.0,1.0,1.0*30
$GPRMC,032054.995,A,3957.335,N,08252.837,W,038.9,092.0,131218,000.0,W*60
$GPGGA,032055.995,3957.334,N,08252.823,W,1,12,1.0,0.0,M,0.0,M,,*70
$GPGSA,A,3,01,02,03,04,05,06,07,08,09,10,11,12,1.0,1.0,1.0*30
$GPRMC,032055.995,A,3957.334,N,08252.823,W,038.9,092.0,131218,000.0,W*65
$GPGGA,032056.995,3957.334,N,08252.808,W,1,12,1.0,0.0,M,0.0,M,,*7A
$GPGSA,A,3,01,02,03,04,05,06,07,08,09,10,11,12,1.0,1.0,1.0*30
$GPRMC,032056.995,A,3957.334,N,08252.808,W,038.9,092.0,131218,000.0,W*6F
$GPGGA,032057.995,3957.333,N,08252.794,W,1,12,1.0,0.0,M,0.0,M,,*76
$GPGSA,A,3,01,02,03,04,05,06,07,08,09,10,11,12,1.0,1.0,1.0*30
$GPRMC,032057.995,A,3957.333,N,08252.794,W,038.9,092.0,131218,000.0,W*63
$GPGGA,032058.995,3957.333,N,08252.780,W,1,12,1.0,0.0,M,0.0,M,,*7C
$GPGSA,A,3,01,02,03,04,05,06,07,08,09,10,11,12,1.0,1.0,1.0*30
$GPRMC,032058.995,A,3957.333,N,08252.780,W,038.9,092.0,131218,000.0,W*69
$GPGGA,032059.995,3957.332,N,08252.766,W,1,12,1.0,0.0,M,0.0,M,,*74
$GPGSA,A,3,01,02,03,04,05,06,07,08,09,10,11,12,1.0,1.0,1.0*30
$GPRMC,032059.995,A,3957.332,N,08252.766,W,038.9,092.0,131218,000.0,W*61
$GPGGA,032100.995,3957.332,N,08252.752,W,1,12,1.0,0.0,M,0.0,M,,*7E
$GPGSA,A,3,01,02,03,04,05,06,07,08,09,10,11,12,1.0,1.0,1.0*30
$GPRMC,032100.995,A,3957.332,N,08252.752,W,038.9,092.0,131218,000.0,W*6B
$GPGGA,032101.995,3957.331,N,08252.738,W,1,12,1.0,0.0,M,0.0,M,,*70
$GPGSA,A,3,01,02,03,04,05,06,07,08,09,10,11,12,1.0,1.0,1.0*30
$GPRMC,032101.995,A,3957.331,N,08252.738,W,038.9,092.0,131218,000.0,W*65
$GPGGA,032102.995,3957.331,N,08252.724,W,1,12,1.0,0.0,M,0.0,M,,*7E
$GPGSA,A,3,01,02,03,04,05,06,07,08,09,10,11,12,1.0,1.0,1.0*30
$GPRMC,032102.995,A,3957.331,N,08252.724,W,038.9,092.0,131218,000.0,W*6B
$GPGGA,032103.995,3957.330,N,08252.710,W,1,12,1.0,0.0,M,0.0,M,,*79
$GPGSA,A,3,01,02,03,04,05,06,07,08,09,10,11,12,1.0,1.0,1.0*30
$GPRMC,032103.995,A,3957.330,N,08252.710,W,038.9,092.0,131218,000.0,W*6C
$GPGGA,032104.995,3957.330,N,08252.696,W,1,12,1.0,0.0,M,0.0,M,,*71
$GPGSA,A,3,01,02,03,04,05,06,07,08,09,10,11,12,1.0,1.0,1.0*30
$GPRMC,032104.995,A,3957.330,N,08252.696,W,038.9,092.0,131218,000.0,W*64
$GPGGA,032105.995,3957.329,N,08252.682,W,1,12,1.0,0.0,M,0.0,M,,*7D
$GPGSA,A,3,01,02,03,04,05,06,07,08,09,10,11,12,1.0,1.0,1.0*30
$GPRMC,032105.995,A,3957.329,N,08252.682,W,038.9,092.0,131218,000.0,W*68
$GPGGA,032106.995,3957.329,N,08252.668,W,1,12,1.0,0.0,M,0.0,M,,*7A
$GPGSA,A,3,01,02,03,04,05,06,07,08,09,10,11,12,1.0,1.0,1.0*30
$GPRMC,032106.995,A,3957.329,N,08252.668,W,038.9,092.0,131218,000.0,W*6F
$GPGGA,032107.995,3957.328,N,08252.654,W,1,12,1.0,0.0,M,0.0,M,,*75
$GPGSA,A,3,01,02,03,04,05,06,07,08,09,10,11,12,1.0,1.0,1.0*30
$GPRMC,032107.995,A,3957.328,N,08252.654,W,038.9,092.0,131218,000.0,W*60
$GPGGA,032108.995,3957.328,N,08252.640,W,1,12,1.0,0.0,M,0.0,M,,*7F
$GPGSA,A,3,01,02,03,04,05,06,07,08,09,10,11,12,1.0,1.0,1.0*30
$GPRMC,032108.995,A,3957.328,N,08252.640,W,038.9,092.0,131218,000.0,W*6A
$GPGGA,032109.995,3957.327,N,08252.626,W,1,12,1.0,0.0,M,0.0,M,,*71
$GPGSA,A,3,01,02,03,04,05,06,07,08,09,10,11,12,1.0,1.0,1.0*30
$GPRMC,032109.995,A,3957.327,N,08252.626,W,038.9,092.0,131218,000.0,W*64
$GPGGA,032110.995,3957.327,N,08252.612,W,1,12,1.0,0.0,M,0.0,M,,*7E
$GPGSA,A,3,01,02,03,04,05,06,07,08,09,10,11,12,1.0,1.0,1.0*30
$GPRMC,032110.995,A,3957.327,N,08252.612,W,038.9,004.7,131218,000.0,W*63
$GPGGA,032111.995,3957.338,N,08252.611,W,1,12,1.0,0.0,M,0.0,M,,*72
$GPGSA,A,3,01,02,03,04,05,06,07,08,09,10,11,12,1.0,1.0,1.0*30
$GPRMC,032111.995,A,3957.338,N,08252.611,W,038.9,004.7,131218,000.0,W*6F
$GPGGA,032112.995,3957.349,N,08252.610,W,1,12,1.0,0.0,M,0.0,M,,*76
$GPGSA,A,3,01,02,03,04,05,06,07,08,09,10,11,12,1.0,1.0,1.0*30
$GPRMC,032112.995,A,3957.349,N,08252.610,W,038.9,004.7,131218,000.0,W*6B
$GPGGA,032113.995,3957.359,N,08252.609,W,1,12,1.0,0.0,M,0.0,M,,*7E
$GPGSA,A,3,01,02,03,04,05,06,07,08,09,10,11,12,1.0,1.0,1.0*30
$GPRMC,032113.995,A,3957.359,N,08252.609,W,038.9,004.7,131218,000.0,W*63
$GPGGA,032114.995,3957.370,N,08252.608,W,1,12,1.0,0.0,M,0.0,M,,*73
$GPGSA,A,3,01,02,03,04,05,06,07,08,09,10,11,12,1.0,1.0,1.0*30
$GPRMC,032114.995,A,3957.370,N,08252.608,W,038.9,004.7,131218,000.0,W*6E
$GPGGA,032115.995,3957.381,N,08252.607,W,1,12,1.0,0.0,M,0.0,M,,*73
$GPGSA,A,3,01,02,03,04,05,06,07,08,09,10,11,12,1.0,1.0,1.0*30
$GPRMC,032115.995,A,3957.381,N,08252.607,W,038.9,004.7,131218,000.0,W*6E
$GPGGA,032116.995,3957.392,N,08252.606,W,1,12,1.0,0.0,M,0.0,M,,*73
$GPGSA,A,3,01,02,03,04,05,06,07,08,09,10,11,12,1.0,1.0,1.0*30
$GPRMC,032116.995,A,3957.392,N,08252.606,W,038.9,004.7,131218,000.0,W*6E
$GPGGA,032117.995,3957.402,N,08252.605,W,1,12,1.0,0.0,M,0.0,M,,*7F
$GPGSA,A,3,01,02,03,04,05,06,07,08,09,10,11,12,1.0,1.0,1.0*30
$GPRMC,032117.995,A,3957.402,N,08252.605,W,038.9,004.7,131218,000.0,W*62
$GPGGA,032118.995,3957.413,N,08252.604,W,1,12,1.0,0.0,M,0.0,M,,*71
$GPGSA,A,3,01,02,03,04,05,06,07,08,09,10,11,12,1.0,1.0,1.0*30
$GPRMC,032118.995,A,3957.413,N,08252.604,W,038.9,004.7,131218,000.0,W*6C
$GPGGA,032119.995,3957.424,N,08252.604,W,1,12,1.0,0.0,M,0.0,M,,*74
$GPGSA,A,3,01,02,03,04,05,06,07,08,09,10,11,12,1.0,1.0,1.0*30
$GPRMC,032119.995,A,3957.424,N,08252.604,W,038.9,004.7,131218,000.0,W*69
$GPGGA,032120.995,3957.435,N,08252.603,W,1,12,1.0,0.0,M,0.0,M,,*79
$GPGSA,A,3,01,02,03,04,05,06,07,08,09,10,11,12,1.0,1.0,1.0*30
$GPRMC,032120.995,A,3957.435,N,08252.603,W,038.9,004.7,131218,000.0,W*64
$GPGGA,032121.995,3957.445,N,08252.602,W,1,12,1.0,0.0,M,0.0,M,,*7E
$GPGSA,A,3,01,02,03,04,05,06,07,08,09,10,11,12,1.0,1.0,1.0*30
$GPRMC,032121.995,A,3957.445,N,08252.602,W,038.9,004.7,131218,000.0,W*63
$GPGGA,032122.995,3957.456,N,08252.601,W,1,12,1.0,0.0,M,0.0,M,,*7C
$GPGSA,A,3,01,02,03,04,05,06,07,08,09,10,11,12,1.0,1.0,1.0*30
$GPRMC,032122.995,A,3957.456,N,08252.601,W,038.9,004.7,131218,000.0,W*61
$GPGGA,032123.995,3957.467,N,08252.600,W,1,12,1.0,0.0,M,0.0,M,,*7E
$GPGSA,A,3,01,02,03,04,05,06,07,08,09,10,11,12,1.0,1.0,1.0*30
$GPRMC,032123.995,A,3957.467,N,08252.600,W,038.9,004.7,131218,000.0,W*63
$GPGGA,032124.995,3957.478,N,08252.599,W,1,12,1.0,0.0,M,0.0,M,,*74
$GPGSA,A,3,01,02,03,04,05,06,07,08,09,10,11,12,1.0,1.0,1.0*30
$GPRMC,032124.995,A,3957.478,N,08252.599,W,038.9,004.7,131218,000.0,W*69
$GPGGA,032125.995,3957.489,N,08252.598,W,1,12,1.0,0.0,M,0.0,M,,*7A
$GPGSA,A,3,01,02,03,04,05,06,07,08,09,10,11,12,1.0,1.0,1.0*30
$GPRMC,032125.995,A,3957.489,N,08252.598,W,038.9,004.7,131218,000.0,W*67
$GPGGA,032126.995,3957.499,N,08252.597,W,1,12,1.0,0.0,M,0.0,M,,*77
$GPGSA,A,3,01,02,03,04,05,06,07,08,09,10,11,12,1.0,1.0,1.0*30
$GPRMC,032126.995,A,3957.499,N,08252.597,W,038.9,004.7,131218,000.0,W*6A
$GPGGA,032127.995,3957.510,N,08252.596,W,1,12,1.0,0.0,M,0.0,M,,*77
$GPGSA,A,3,01,02,03,04,05,06,07,08,09,10,11,12,1.0,1.0,1.0*30
$GPRMC,032127.995,A,3957.510,N,08252.596,W,038.9,004.7,131218,000.0,W*6A
$GPGGA,032128.995,3957.521,N,08252.596,W,1,12,1.0,0.0,M,0.0,M,,*7A
$GPGSA,A,3,01,02,03,04,05,06,07,08,09,10,11,12,1.0,1.0,1.0*30
$GPRMC,032128.995,A,3957.521,N,08252.596,W,038.9,004.7,131218,000.0,W*67
$GPGGA,032129.995,3957.532,N,08252.595,W,1,12,1.0,0.0,M,0.0,M,,*7A
$GPGSA,A,3,01,02,03,04,05,06,07,08,09,10,11,12,1.0,1.0,1.0*30
$GPRMC,032129.995,A,3957.532,N,08252.595,W,038.9,004.7,131218,000.0,W*67
$GPGGA,032130.995,3957.542,N,08252.594,W,1,12,1.0,0.0,M,0.0,M,,*74
$GPGSA,A,3,01,02,03,04,05,06,07,08,09,10,11,12,1.0,1.0,1.0*30
$GPRMC,032130.995,A,3957.542,N,08252.594,W,038.9,004.7,131218,000.0,W*69
$GPGGA,032131.995,3957.553,N,08252.593,W,1,12,1.0,0.0,M,0.0,M,,*72
$GPGSA,A,3,01,02,03,04,05,06,07,08,09,10,11,12,1.0,1.0,1.0*30
$GPRMC,032131.995,A,3957.553,N,08252.593,W,038.9,004.7,131218,000.0,W*6F
$GPGGA,032132.995,3957.564,N,08252.592,W,1,12,1.0,0.0,M,0.0,M,,*74
$GPGSA,A,3,01,02,03,04,05,06,07,08,09,10,11,12,1.0,1.0,1.0*30
$GPRMC,032132.995,A,3957.564,N,08252.592,W,038.9,004.7,131218,000.0,W*69
$GPGGA,032133.995,3957.575,N,08252.591,W,1,12,1.0,0.0,M,0.0,M,,*76
$GPGSA,A,3,01,02,03,04,05,06,07,08,09,10,11,12,1.0,1.0,1.0*30
$GPRMC,032133.995,A,3957.575,N,08252.591,W,038.9,004.7,131218,000.0,W*6B
$GPGGA,032134.995,3957.586,N,08252.590,W,1,12,1.0,0.0,M,0.0,M,,*7C
$GPGSA,A,3,01,02,03,04,05,06,07,08,09,10,11,12,1.0,1.0,1.0*30
$GPRMC,032134.995,A,3957.586,N,08252.590,W,038.9,004.7,131218,000.0,W*61
$GPGGA,032135.995,3957.596,N,08252.589,W,1,12,1.0,0.0,M,0.0,M,,*74
$GPGSA,A,3,01,02,03,04,05,06,07,08,09,10,11,12,1.0,1.0,1.0*30
$GPRMC,032135.995,A,3957.596,N,08252.589,W,038.9,004.7,131218,000.0,W*69
$GPGGA,032136.995,3957.607,N,08252.588,W,1,12,1.0,0.0,M,0.0,M,,*7D
$GPGSA,A,3,01,02,03,04,05,06,07,08,09,10,11,12,1.0,1.0,1.0*30
$GPRMC,032136.995,A,3957.607,N,08252.588,W,038.9,004.7,131218,000.0,W*60
$GPGGA,032137.995,3957.618,N,08252.588,W,1,12,1.0,0.0,M,0.0,M,,*72
$GPGSA,A,3,01,02,03,04,05,06,07,08,09,10,11,12,1.0,1.0,1.0*30
$GPRMC,032137.995,A,3957.618,N,08252.588,W,038.9,004.7,131218,000.0,W*6F
$GPGGA,032138.995,3957.629,N,08252.587,W,1,12,1.0,0.0,M,0.0,M,,*70
$GPGSA,A,3,01,02,03,04,05,06,07,08,09,10,11,12,1.0,1.0,1.0*30
$GPRMC,032138.995,A,3957.629,N,08252.587,W,038.9,004.7,131218,000.0,W*6D
$GPGGA,032139.995,3957.639,N,08252.586,W,1,12,1.0,0.0,M,0.0,M,,*71
$GPGSA,A,3,01,02,03,04,05,06,07,08,09,10,11,12,1.0,1.0,1.0*30
$GPRMC,032139.995,A,3957.639,N,08252.586,W,038.9,004.7,131218,000.0,W*6C
$GPGGA,032140.995,3957.650,N,08252.585,W,1,12,1.0,0.0,M,0.0,M,,*73
$GPGSA,A,3,01,02,03,04,05,06,07,08,09,10,11,12,1.0,1.0,1.0*30
$GPRMC,032140.995,A,3957.650,N,08252.585,W,038.9,004.7,131218,000.0,W*6E
$GPGGA,032141.995,3957.661,N,08252.584,W,1,12,1.0,0.0,M,0.0,M,,*71
$GPGSA,A,3,01,02,03,04,05,06,07,08,09,10,11,12,1.0,1.0,1.0*30
$GPRMC,032141.995,A,3957.661,N,08252.584,W,038.9,004.7,131218,000.0,W*6C
$GPGGA,032142.995,3957.672,N,08252.583,W,1,12,1.0,0.0,M,0.0,M,,*77
$GPGSA,A,3,01,02,03,04,05,06,07,08,09,10,11,12,1.0,1.0,1.0*30
$GPRMC,032142.995,A,3957.672,N,08252.583,W,038.9,004.7,131218,000.0,W*6A
$GPGGA,032143.995,3957.682,N,08252.582,W,1,12,1.0,0.0,M,0.0,M,,*78
$GPGSA,A,3,01,02,03,04,05,06,07,08,09,10,11,12,1.0,1.0,1.0*30
$GPRMC,032143.995,A,3957.682,N,08252.582,W,038.9,004.7,131218,000.0,W*65
$GPGGA,032144.995,3957.693,N,08252.581,W,1,12,1.0,0.0,M,0.0,M,,*7C
$GPGSA,A,3,01,02,03,04,05,06,07,08,09,10,11,12,1.0,1.0,1.0*30
$GPRMC,032144.995,A,3957.693,N,08252.581,W,038.9,004.7,131218,000.0,W*61
$GPGGA,032145.995,3957.704,N,08252.581,W,1,12,1.0,0.0,M,0.0,M,,*72
$GPGSA,A,3,01,02,03,04,05,06,07,08,09,10,11,12,1.0,1.0,1.0*30
$GPRMC,032145.995,A,3957.704,N,08252.581,W,038.9,004.7,131218,000.0,W*6F
$GPGGA,032146.995,3957.715,N,08252.580,W,1,12,1.0,0.0,M,0.0,M,,*70
$GPGSA,A,3,01,02,03,04,05,06,07,08,09,10,11,12,1.0,1.0,1.0*30
$GPRMC,032146.995,A,3957.715,N,08252.580,W,038.9,004.7,131218,000.0,W*6D
$GPGGA,032147.995,3957.726,N,08252.579,W,1,12,1.0,0.0,M,0.0,M,,*77
$GPGSA,A,3,01,02,03,04,05,06,07,08,09,10,11,12,1.0,1.0,1.0*30
$GPRMC,032147.995,A,3957.726,N,08252.579,W,038.9,004.7,131218,000.0,W*6A
$GPGGA,032148.995,3957.736,N,08252.578,W,1,12,1.0,0.0,M,0.0,M,,*78
$GPGSA,A,3,01,02,03,04,05,06,07,08,09,10,11,12,1.0,1.0,1.0*30
$GPRMC,032148.995,A,3957.736,N,08252.578,W,038.9,004.7,131218,000.0,W*65
$GPGGA,032149.995,3957.747,N,08252.577,W,1,12,1.0,0.0,M,0.0,M,,*70
$GPGSA,A,3,01,02,03,04,05,06,07,08,09,10,11,12,1.0,1.0,1.0*30
$GPRMC,032149.995,A,3957.747,N,08252.577,W,038.9,004.7,131218,000.0,W*6D
$GPGGA,032150.995,3957.758,N,08252.576,W,1,12,1.0,0.0,M,0.0,M,,*77
$GPGSA,A,3,01,02,03,04,05,06,07,08,09,10,11,12,1.0,1.0,1.0*30
$GPRMC,032150.995,A,3957.758,N,08252.576,W,038.9,004.7,131218,000.0,W*6A
$GPGGA,032151.995,3957.769,N,08252.575,W,1,12,1.0,0.0,M,0.0,M,,*77
$GPGSA,A,3,01,02,03,04,05,06,07,08,09,10,11,12,1.0,1.0,1.0*30
$GPRMC,032151.995,A,3957.769,N,08252.575,W,038.9,004.7,131218,000.0,W*6A
$GPGGA,032152.995,3957.779,N,08252.574,W,1,12,1.0,0.0,M,0.0,M,,*74
$GPGSA,A,3,01,02,03,04,05,06,07,08,09,10,11,12,1.0,1.0,1.0*30
$GPRMC,032152.995,A,3957.779,N,08252.574,W,038.9,004.7,131218,000.0,W*69
$GPGGA,032153.995,3957.790,N,08252.573,W,1,12,1.0,0.0,M,0.0,M,,*75
$GPGSA,A,3,01,02,03,04,05,06,07,08,09,10,11,12,1.0,1.0,1.0*30
$GPRMC,032153.995,A,3957.790,N,08252.573,W,038.9,004.7,131218,000.0,W*68
$GPGGA,032154.995,3957.801,N,08252.573,W,1,12,1.0,0.0,M,0.0,M,,*75
$GPGSA,A,3,01,02,03,04,05,06,07,08,09,10,11,12,1.0,1.0,1.0*30
$GPRMC,032154.995,A,3957.801,N,08252.573,W,038.9,004.7,131218,000.0,W*68
$GPGGA,032155.995,3957.812,N,08252.572,W,1,12,1.0,0.0,M,0.0,M,,*77
$GPGSA,A,3,01,02,03,04,05,06,07,08,09,10,11,12,1.0,1.0,1.0*30
$GPRMC,032155.995,A,3957.812,N,08252.572,W,038.9,004.7,131218,000.0,W*6A
$GPGGA,032156.995,3957.822,N,08252.571,W,1,12,1.0,0.0,M,0.0,M,,*74
$GPGSA,A,3,01,02,03,04,05,06,07,08,09,10,11,12,1.0,1.0,1.0*30
$GPRMC,032156.995,A,3957.822,N,08252.571,W,038.9,004.7,131218,000.0,W*69
$GPGGA,032157.995,3957.833,N,08252.570,W,1,12,1.0,0.0,M,0.0,M,,*74
$GPGSA,A,3,01,02,03,04,05,06,07,08,09,10,11,12,1.0,1.0,1.0*30
$GPRMC,032157.995,A,3957.833,N,08252.570,W,038.9,004.7,131218,000.0,W*69
$GPGGA,032158.995,3957.844,N,08252.569,W,1,12,1.0,0.0,M,0.0,M,,*73
$GPGSA,A,3,01,02,03,04,05,06,07,08,09,10,11,12,1.0,1.0,1.0*30
$GPRMC,032158.995,A,3957.844,N,08252.569,W,038.9,004.7,131218,000.0,W*6E
$GPGGA,032159.995,3957.855,N,08252.568,W,1,12,1.0,0.0,M,0.0,M,,*73
$GPGSA,A,3,01,02,03,04,05,06,07,08,09,10,11,12,1.0,1.0,1.0*30
$GPRMC,032159.995,A,3957.855,N,08252.568,W,038.9,004.7,131218,000.0,W*6E
$GPGGA,032200.995,3957.866,N,08252.567,W,1,12,1.0,0.0,M,0.0,M,,*73
$GPGSA,A,3,01,02,03,04,05,06,07,08,09,10,11,12,1.0,1.0,1.0*30
$GPRMC,032200.995,A,3957.866,N,08252.567,W,038.9,004.7,131218,000.0,W*6E
$GPGGA,032201.995,3957.876,N,08252.566,W,1,12,1.0,0.0,M,0.0,M,,*72
$GPGSA,A,3,01,02,03,04,05,06,07,08,09,10,11,12,1.0,1.0,1.0*30
$GPRMC,032201.995,A,3957.876,N,08252.566,W,038.9,004.7,131218,000.0,W*6F
$GPGGA,032202.995,3957.887,N,08252.565,W,1,12,1.0,0.0,M,0.0,M,,*7C
$GPGSA,A,3,01,02,03,04,05,06,07,08,09,10,11,12,1.0,1.0,1.0*30
$GPRMC,032202.995,A,3957.887,N,08252.565,W,038.9,004.7,131218,000.0,W*61
$GPGGA,032203.995,3957.898,N,08252.565,W,1,12,1.0,0.0,M,0.0,M,,*73
$GPGSA,A,3,01,02,03,04,05,06,07,08,09,10,11,12,1.0,1.0,1.0*30
$GPRMC,032203.995,A,3957.898,N,08252.565,W,038.9,004.7,131218,000.0,W*6E
$GPGGA,032204.995,3957.909,N,08252.564,W,1,12,1.0,0.0,M,0.0,M,,*7C
$GPGSA,A,3,01,02,03,04,05,06,07,08,09,10,11,12,1.0,1.0,1.0*30
$GPRMC,032204.995,A,3957.909,N,08252.564,W,038.9,004.7,131218,000.0,W*61
$GPGGA,032205.995,3957.919,N,08252.563,W,1,12,1.0,0.0,M,0.0,M,,*7B
$GPGSA,A,3,01,02,03,04,05,06,07,08,09,10,11,12,1.0,1.0,1.0*30
$GPRMC,032205.995,A,3957.919,N,08252.563,W,038.9,004.7,131218,000.0,W*66
$GPGGA,032206.995,3957.930,N,08252.562,W,1,12,1.0,0.0,M,0.0,M,,*72
$GPGSA,A,3,01,02,03,04,05,06,07,08,09,10,11,12,1.0,1.0,1.0*30
$GPRMC,032206.995,A,3957.930,N,08252.562,W,038.9,004.7,131218,000.0,W*6F
$GPGGA,032207.995,3957.941,N,08252.561,W,1,12,1.0,0.0,M,0.0,M,,*76
$GPGSA,A,3,01,02,03,04,05,06,07,08,09,10,11,12,1.0,1.0,1.0*30
$GPRMC,032207.995,A,3957.941,N,08252.561,W,038.9,004.7,131218,000.0,W*6B
$GPGGA,032208.995,3957.952,N,08252.560,W,1,12,1.0,0.0,M,0.0,M,,*7A
$GPGSA,A,3,01,02,03,04,05,06,07,08,09,10,11,12,1.0,1.0,1.0*30
$GPRMC,032208.995,A,3957.952,N,08252.560,W,038.9,004.7,131218,000.0,W*67
$GPGGA,032209.995,3957.962,N,08252.559,W,1,12,1.0,0.0,M,0.0,M,,*72
$GPGSA,A,3,01,02,03,04,05,06,07,08,09,10,11,12,1.0,1.0,1.0*30
$GPRMC,032209.995,A,3957.962,N,08252.559,W,038.9,004.7,131218,000.0,W*6F
$GPGGA,032210.995,3957.973,N,08252.558,W,1,12,1.0,0.0,M,0.0,M,,*7B
$GPGSA,A,3,01,02,03,04,05,06,07,08,09,10,11,12,1.0,1.0,1.0*30
$GPRMC,032210.995,A,3957.973,N,08252.558,W,038.9,004.7,131218,000.0,W*66
$GPGGA,032211.995,3957.984,N,08252.557,W,1,12,1.0,0.0,M,0.0,M,,*7D
$GPGSA,A,3,01,02,03,04,05,06,07,08,09,10,11,12,1.0,1.0,1.0*30
$GPRMC,032211.995,A,3957.984,N,08252.557,W,038.9,004.7,131218,000.0,W*60
$GPGGA,032212.995,3957.995,N,08252.557,W,1,12,1.0,0.0,M,0.0,M,,*7E
$GPGSA,A,3,01,02,03,04,05,06,07,08,09,10,11,12,1.0,1.0,1.0*30
$GPRMC,032212.995,A,3957.995,N,08252.557,W,038.9,004.7,131218,000.0,W*63
$GPGGA,032213.995,3958.006,N,08252.556,W,1,12,1.0,0.0,M,0.0,M,,*72
$GPGSA,A,3,01,02,03,04,05,06,07,08,09,10,11,12,1.0,1.0,1.0*30
$GPRMC,032213.995,A,3958.006,N,08252.556,W,038.9,004.7,131218,000.0,W*6F
$GPGGA,032214.995,3958.016,N,08252.555,W,1,12,1.0,0.0,M,0.0,M,,*77
$GPGSA,A,3,01,02,03,04,05,06,07,08,09,10,11,12,1.0,1.0,1.0*30
$GPRMC,032214.995,A,3958.016,N,08252.555,W,038.9,004.7,131218,000.0,W*6A
$GPGGA,032215.995,3958.027,N,08252.554,W,1,12,1.0,0.0,M,0.0,M,,*75
$GPGSA,A,3,01,02,03,04,05,06,07,08,09,10,11,12,1.0,1.0,1.0*30
$GPRMC,032215.995,A,3958.027,N,08252.554,W,038.9,004.7,131218,000.0,W*68
$GPGGA,032216.995,3958.038,N,08252.553,W,1,12,1.0,0.0,M,0.0,M,,*7F
$GPGSA,A,3,01,02,03,04,05,06,07,08,09,10,11,12,1.0,1.0,1.0*30
$GPRMC,032216.995,A,3958.038,N,08252.553,W,038.9,004.7,131218,000.0,W*62
$GPGGA,032217.995,3958.049,N,08252.552,W,1,12,1.0,0.0,M,0.0,M,,*79
$GPGSA,A,3,01,02,03,04,05,06,07,08,09,10,11,12,1.0,1.0,1.0*30
$GPRMC,032217.995,A,3958.049,N,08252.552,W,038.9,004.7,131218,000.0,W*64
$GPGGA,032218.995,3958.059,N,08252.551,W,1,12,1.0,0.0,M,0.0,M,,*74
$GPGSA,A,3,01,02,03,04,05,06,07,08,09,10,11,12,1.0,1.0,1.0*30
$GPRMC,032218.995,A,3958.059,N,08252.551,W,038.9,004.7,131218,000.0,W*69
$GPGGA,032219.995,3958.070,N,08252.550,W,1,12,1.0,0.0,M,0.0,M,,*7F
$GPGSA,A,3,01,02,03,04,05,06,07,08,09,10,11,12,1.0,1.0,1.0*30
$GPRMC,032219.995,A,3958.070,N,08252.550,W,038.9,004.7,131218,000.0,W*62
$GPGGA,032220.995,3958.081,N,08252.549,W,1,12,1.0,0.0,M,0.0,M,,*73
$GPGSA,A,3,01,02,03,04,05,06,07,08,09,10,11,12,1.0,1.0,1.0*30
$GPRMC,032220.995,A,3958.081,N,08252.549,W,038.9,004.7,131218,000.0,W*6E
$GPGGA,032221.995,3958.092,N,08252.549,W,1,12,1.0,0.0,M,0.0,M,,*70
$GPGSA,A,3,01,02,03,04,05,06,07,08,09,10,11,12,1.0,1.0,1.0*30
$GPRMC,032221.995,A,3958.092,N,08252.549,W,038.9,004.7,131218,000.0,W*6D
$GPGGA,032222.995,3958.102,N,08252.548,W,1,12,1.0,0.0,M,0.0,M,,*7A
$GPGSA,A,3,01,02,03,04,05,06,07,08,09,10,11,12,1.0,1.0,1.0*30
$GPRMC,032222.995,A,3958.102,N,08252.548,W,038.9,004.7,131218,000.0,W*67
$GPGGA,032223.995,3958.113,N,08252.547,W,1,12,1.0,0.0,M,0.0,M,,*74
$GPGSA,A,3,01,02,03,04,05,06,07,08,09,10,11,12,1.0,1.0,1.0*30
$GPRMC,032223.995,A,3958.113,N,08252.547,W,038.9,004.7,131218,000.0,W*69
$GPGGA,032224.995,3958.124,N,08252.546,W,1,12,1.0,0.0,M,0.0,M,,*76
$GPGSA,A,3,01,02,03,04,05,06,07,08,09,10,11,12,1.0,1.0,1.0*30
$GPRMC,032224.995,A,3958.124,N,08252.546,W,038.9,004.7,131218,000.0,W*6B
$GPGGA,032225.995,3958.135,N,08252.545,W,1,12,1.0,0.0,M,0.0,M,,*74
$GPGSA,A,3,01,02,03,04,05,06,07,08,09,10,11,12,1.0,1.0,1.0*30
$GPRMC,032225.995,A,3958.135,N,08252.545,W,038.9,004.7,131218,000.0,W*69
$GPGGA,032226.995,3958.146,N,08252.544,W,1,12,1.0,0.0,M,0.0,M,,*72
$GPGSA,A,3,01,02,03,04,05,06,07,08,09,10,11,12,1.0,1.0,1.0*30
$GPRMC,032226.995,A,3958.146,N,08252.544,W,038.9,004.7,131218,000.0,W*6F
$GPGGA,032227.995,3958.156,N,08252.543,W,1,12,1.0,0.0,M,0.0,M,,*75
$GPGSA,A,3,01,02,03,04,05,06,07,08,09,10,11,12,1.0,1.0,1.0*30
$GPRMC,032227.995,A,3958.156,N,08252.543,W,038.9,004.7,131218,000.0,W*68
$GPGGA,032228.995,3958.167,N,08252.542,W,1,12,1.0,0.0,M,0.0,M,,*79
$GPGSA,A,3,01,02,03,04,05,06,07,08,09,10,11,12,1.0,1.0,1.0*30
$GPRMC,032228.995,A,3958.167,N,08252.542,W,038.9,004.7,131218,000.0,W*64
$GPGGA,032229.995,3958.178,N,08252.541,W,1,12,1.0,0.0,M,0.0,M,,*75
$GPGSA,A,3,01,02,03,04,05,06,07,08,09,10,11,12,1.0,1.0,1.0*30
$GPRMC,032229.995,A,3958.178,N,08252.541,W,038.9,004.7,131218,000.0,W*68
$GPGGA,032230.995,3958.189,N,08252.541,W,1,12,1.0,0.0,M,0.0,M,,*73
$GPGSA,A,3,01,02,03,04,05,06,07,08,09,10,11,12,1.0,1.0,1.0*30
$GPRMC,032230.995,A,3958.189,N,08252.541,W,038.9,004.7,131218,000.0,W*6E
$GPGGA,032231.995,3958.199,N,08252.540,W,1,12,1.0,0.0,M,0.0,M,,*72
$GPGSA,A,3,01,02,03,04,05,06,07,08,09,10,11,12,1.0,1.0,1.0*30
$GPRMC,032231.995,A,3958.199,N,08252.540,W,038.9,004.7,131218,000.0,W*6F
$GPGGA,032232.995,3958.210,N,08252.539,W,1,12,1.0,0.0,M,0.0,M,,*7D
$GPGSA,A,3,01,02,03,04,05,06,07,08,09,10,11,12,1.0,1.0,1.0*30
$GPRMC,032232.995,A,3958.210,N,08252.539,W,038.9,004.7,131218,000.0,W*60
$GPGGA,032233.995,3958.221,N,08252.538,W,1,12,1.0,0.0,M,0.0,M,,*7F
$GPGSA,A,3,01,02,03,04,05,06,07,08,09,10,11,12,1.0,1.0,1.0*30
$GPRMC,032233.995,A,3958.221,N,08252.538,W,038.9,004.7,131218,000.0,W*62
$GPGGA,032234.995,3958.232,N,08252.537,W,1,12,1.0,0.0,M,0.0,M,,*75
$GPGSA,A,3,01,02,03,04,05,06,07,08,09,10,11,12,1.0,1.0,1.0*30
$GPRMC,032234.995,A,3958.232,N,08252.537,W,038.9,004.7,131218,000.0,W*68
$GPGGA,032235.995,3958.243,N,08252.536,W,1,12,1.0,0.0,M,0.0,M,,*73
$GPGSA,A,3,01,02,03,04,05,06,07,08,09,10,11,12,1.0,1.0,1.0*30
$GPRMC,032235.995,A,3958.243,N,08252.536,W,038.9,004.7,131218,000.0,W*6E
$GPGGA,032236.995,3958.253,N,08252.535,W,1,12,1.0,0.0,M,0.0,M,,*72
$GPGSA,A,3,01,02,03,04,05,06,07,08,09,10,11,12,1.0,1.0,1.0*30
$GPRMC,032236.995,A,3958.253,N,08252.535,W,038.9,014.3,131218,000.0,W*6A
$GPGGA,032237.995,3958.264,N,08252.533,W,1,12,1.0,0.0,M,0.0,M,,*71
$GPGSA,A,3,01,02,03,04,05,06,07,08,09,10,11,12,1.0,1.0,1.0*30
$GPRMC,032237.995,A,3958.264,N,08252.533,W,038.9,014.3,131218,000.0,W*69
$GPGGA,032238.995,3958.274,N,08252.530,W,1,12,1.0,0.0,M,0.0,M,,*7C
$GPGSA,A,3,01,02,03,04,05,06,07,08,09,10,11,12,1.0,1.0,1.0*30
$GPRMC,032238.995,A,3958.274,N,08252.530,W,038.9,014.3,131218,000.0,W*64
$GPGGA,032239.995,3958.285,N,08252.527,W,1,12,1.0,0.0,M,0.0,M,,*75
$GPGSA,A,3,01,02,03,04,05,06,07,08,09,10,11,12,1.0,1.0,1.0*30
$GPRMC,032239.995,A,3958.285,N,08252.527,W,038.9,014.3,131218,000.0,W*6D
$GPGGA,032240.995,3958.296,N,08252.524,W,1,12,1.0,0.0,M,0.0,M,,*7A
$GPGSA,A,3,01,02,03,04,05,06,07,08,09,10,11,12,1.0,1.0,1.0*30
$GPRMC,032240.995,A,3958.296,N,08252.524,W,038.9,014.3,131218,000.0,W*62
$GPGGA,032241.995,3958.306,N,08252.522,W,1,12,1.0,0.0,M,0.0,M,,*75
$GPGSA,A,3,01,02,03,04,05,06,07,08,09,10,11,12,1.0,1.0,1.0*30
$GPRMC,032241.995,A,3958.306,N,08252.522,W,038.9,018.0,131218,000.0,W*62
$GPGGA,032242.995,3958.317,N,08252.518,W,1,12,1.0,0.0,M,0.0,M,,*7F
$GPGSA,A,3,01,02,03,04,05,06,07,08,09,10,11,12,1.0,1.0,1.0*30
$GPRMC,032242.995,A,3958.317,N,08252.518,W,038.9,018.0,131218,000.0,W*68
$GPGGA,032243.995,3958.327,N,08252.515,W,1,12,1.0,0.0,M,0.0,M,,*70
$GPGSA,A,3,01,02,03,04,05,06,07,08,09,10,11,12,1.0,1.0,1.0*30
$GPRMC,032243.995,A,3958.327,N,08252.515,W,038.9,018.0,131218,000.0,W*67
$GPGGA,032244.995,3958.338,N,08252.512,W,1,12,1.0,0.0,M,0.0,M,,*7E
$GPGSA,A,3,01,02,03,04,05,06,07,08,09,10,11,12,1.0,1.0,1.0*30
$GPRMC,032244.995,A,3958.338,N,08252.512,W,038.9,018.0,131218,000.0,W*69
$GPGGA,032245.995,3958.348,N,08252.508,W,1,12,1.0,0.0,M,0.0,M,,*73
$GPGSA,A,3,01,02,03,04,05,06,07,08,09,10,11,12,1.0,1.0,1.0*30
$GPRMC,032245.995,A,3958.348,N,08252.508,W,038.9,018.0,131218,000.0,W*64
$GPGGA,032246.995,3958.359,N,08252.505,W,1,12,1.0,0.0,M,0.0,M,,*7D
$GPGSA,A,3,01,02,03,04,05,06,07,08,09,10,11,12,1.0,1.0,1.0*30
$GPRMC,032246.995,A,3958.359,N,08252.505,W,038.9,018.0,131218,000.0,W*6A
$GPGGA,032247.995,3958.369,N,08252.501,W,1,12,1.0,0.0,M,0.0,M,,*7B
$GPGSA,A,3,01,02,03,04,05,06,07,08,09,10,11,12,1.0,1.0,1.0*30
$GPRMC,032247.995,A,3958.369,N,08252.501,W,038.9,018.0,131218,000.0,W*6C
$GPGGA,032248.995,3958.380,N,08252.498,W,1,12,1.0,0.0,M,0.0,M,,*72
$GPGSA,A,3,01,02,03,04,05,06,07,08,09,10,11,12,1.0,1.0,1.0*30
$GPRMC,032248.995,A,3958.380,N,08252.498,W,038.9,018.0,131218,000.0,W*65
$GPGGA,032249.995,3958.390,N,08252.494,W,1,12,1.0,0.0,M,0.0,M,,*7E
$GPGSA,A,3,01,02,03,04,05,06,07,08,09,10,11,12,1.0,1.0,1.0*30
$GPRMC,032249.995,A,3958.390,N,08252.494,W,038.9,018.0,131218,000.0,W*69
$GPGGA,032250.995,3958.400,N,08252.491,W,1,12,1.0,0.0,M,0.0,M,,*7D
$GPGSA,A,3,01,02,03,04,05,06,07,08,09,10,11,12,1.0,1.0,1.0*30
$GPRMC,032250.995,A,3958.400,N,08252.491,W,038.9,138.2,131218,000.0,W*6B
$GPGGA,032251.995,3958.392,N,08252.483,W,1,12,1.0,0.0,M,0.0,M,,*73
$GPGSA,A,3,01,02,03,04,05,06,07,08,09,10,11,12,1.0,1.0,1.0*30
$GPRMC,032251.995,A,3958.392,N,08252.483,W,038.9,138.2,131218,000.0,W*65
$GPGGA,032252.995,3958.383,N,08252.475,W,1,12,1.0,0.0,M,0.0,M,,*79
$GPGSA,A,3,01,02,03,04,05,06,07,08,09,10,11,12,1.0,1.0,1.0*30
$GPRMC,032252.995,A,3958.383,N,08252.475,W,038.9,138.2,131218,000.0,W*6F
$GPGGA,032253.995,3958.374,N,08252.467,W,1,12,1.0,0.0,M,0.0,M,,*73
$GPGSA,A,3,01,02,03,04,05,06,07,08,09,10,11,12,1.0,1.0,1.0*30
$GPRMC,032253.995,A,3958.374,N,08252.467,W,038.9,138.2,131218,000.0,W*65
$GPGGA,032254.995,3958.365,N,08252.459,W,1,12,1.0,0.0,M,0.0,M,,*79
$GPGSA,A,3,01,02,03,04,05,06,07,08,09,10,11,12,1.0,1.0,1.0*30
$GPRMC,032254.995,A,3958.365,N,08252.459,W,038.9,138.2,131218,000.0,W*6F
$GPGGA,032255.995,3958.356,N,08252.451,W,1,12,1.0,0.0,M,0.0,M,,*70
$GPGSA,A,3,01,02,03,04,05,06,07,08,09,10,11,12,1.0,1.0,1.0*30
$GPRMC,032255.995,A,3958.356,N,08252.451,W,038.9,138.2,131218,000.0,W*66
$GPGGA,032256.995,3958.347,N,08252.443,W,1,12,1.0,0.0,M,0.0,M,,*70
$GPGSA,A,3,01,02,03,04,05,06,07,08,09,10,11,12,1.0,1.0,1.0*30
$GPRMC,032256.995,A,3958.347,N,08252.443,W,038.9,138.2,131218,000.0,W*66
$GPGGA,032257.995,3958.338,N,08252.435,W,1,12,1.0,0.0,M,0.0,M,,*78
$GPGSA,A,3,01,02,03,04,05,06,07,08,09,10,11,12,1.0,1.0,1.0*30
$GPRMC,032257.995,A,3958.338,N,08252.435,W,038.9,138.2,131218,000.0,W*6E
$GPGGA,032258.995,3958.329,N,08252.427,W,1,12,1.0,0.0,M,0.0,M,,*74
$GPGSA,A,3,01,02,03,04,05,06,07,08,09,10,11,12,1.0,1.0,1.0*30
$GPRMC,032258.995,A,3958.329,N,08252.427,W,038.9,138.2,131218,000.0,W*62
$GPGGA,032259.995,3958.320,N,08252.419,W,1,12,1.0,0.0,M,0.0,M,,*71
$GPGSA,A,3,01,02,03,04,05,06,07,08,09,10,11,12,1.0,1.0,1.0*30
$GPRMC,032259.995,A,3958.320,N,08252.419,W,038.9,138.2,131218,000.0,W*67
$GPGGA,032300.995,3958.311,N,08252.411,W,1,12,1.0,0.0,M,0.0,M,,*76
$GPGSA,A,3,01,02,03,04,05,06,07,08,09,10,11,12,1.0,1.0,1.0*30
$GPRMC,032300.995,A,3958.311,N,08252.411,W,038.9,112.6,131218,000.0,W*6C
$GPGGA,032301.995,3958.306,N,08252.399,W,1,12,1.0,0.0,M,0.0,M,,*76
$GPGSA,A,3,01,02,03,04,05,06,07,08,09,10,11,12,1.0,1.0,1.0*30
$GPRMC,032301.995,A,3958.306,N,08252.399,W,038.9,112.6,131218,000.0,W*6C
$GPGGA,032302.995,3958.301,N,08252.387,W,1,12,1.0,0.0,M,0.0,M,,*7D
$GPGSA,A,3,01,02,03,04,05,06,07,08,09,10,11,12,1.0,1.0,1.0*30
$GPRMC,032302.995,A,3958.301,N,08252.387,W,038.9,112.6,131218,000.0,W*67
$GPGGA,032303.995,3958.296,N,08252.374,W,1,12,1.0,0.0,M,0.0,M,,*7F
$GPGSA,A,3,01,02,03,04,05,06,07,08,09,10,11,12,1.0,1.0,1.0*30
$GPRMC,032303.995,A,3958.296,N,08252.374,W,038.9,112.6,131218,000.0,W*65
$GPGGA,032304.995,3958.291,N,08252.362,W,1,12,1.0,0.0,M,0.0,M,,*78
$GPGSA,A,3,01,02,03,04,05,06,07,08,09,10,11,12,1.0,1.0,1.0*30
$GPRMC,032304.995,A,3958.291,N,08252.362,W,038.9,112.6,131218,000.0,W*62
$GPGGA,032305.995,3958.286,N,08252.349,W,1,12,1.0,0.0,M,0.0,M,,*76
$GPGSA,A,3,01,02,03,04,05,06,07,08,09,10,11,12,1.0,1.0,1.0*30
$GPRMC,032305.995,A,3958.286,N,08252.349,W,038.9,112.6,131218,000.0,W*6C
$GPGGA,032306.995,3958.281,N,08252.337,W,1,12,1.0,0.0,M,0.0,M,,*7B
$GPGSA,A,3,01,02,03,04,05,06,07,08,09,10,11,12,1.0,1.0,1.0*30
$GPRMC,032306.995,A,3958.281,N,08252.337,W,038.9,112.6,131218,000.0,W*61
$GPGGA,032307.995,3958.275,N,08252.325,W,1,12,1.0,0.0,M,0.0,M,,*72
$GPGSA,A,3,01,02,03,04,05,06,07,08,09,10,11,12,1.0,1.0,1.0*30
$GPRMC,032307.995,A,3958.275,N,08252.325,W,038.9,090.7,131218,000.0,W*62
$GPGGA,032308.995,3958.275,N,08252.311,W,1,12,1.0,0.0,M,0.0,M,,*7A
$GPGSA,A,3,01,02,03,04,05,06,07,08,09,10,11,12,1.0,1.0,1.0*30
$GPRMC,032308.995,A,3958.275,N,08252.311,W,038.9,090.7,131218,000.0,W*6A
$GPGGA,032309.995,3958.275,N,08252.297,W,1,12,1.0,0.0,M,0.0,M,,*74
$GPGSA,A,3,01,02,03,04,05,06,07,08,09,10,11,12,1.0,1.0,1.0*30
$GPRMC,032309.995,A,3958.275,N,08252.297,W,038.9,090.7,131218,000.0,W*64
$GPGGA,032310.995,3958.275,N,08252.282,W,1,12,1.0,0.0,M,0.0,M,,*78
$GPGSA,A,3,01,02,03,04,05,06,07,08,09,10,11,12,1.0,1.0,1.0*30
$GPRMC,032310.995,A,3958.275,N,08252.282,W,038.9,090.7,131218,000.0,W*68
$GPGGA,032311.995,3958.275,N,08252.268,W,1,12,1.0,0.0,M,0.0,M,,*7D
$GPGSA,A,3,01,02,03,04,05,06,07,08,09,10,11,12,1.0,1.0,1.0*30
$GPRMC,032311.995,A,3958.275,N,08252.268,W,038.9,090.7,131218,000.0,W*6D
$GPGGA,032312.995,3958.275,N,08252.254,W,1,12,1.0,0.0,M,0.0,M,,*71
$GPGSA,A,3,01,02,03,04,05,06,07,08,09,10,11,12,1.0,1.0,1.0*30
$GPRMC,032312.995,A,3958.275,N,08252.254,W,038.9,090.7,131218,000.0,W*61
$GPGGA,032313.995,3958.274,N,08252.240,W,1,12,1.0,0.0,M,0.0,M,,*74
$GPGSA,A,3,01,02,03,04,05,06,07,08,09,10,11,12,1.0,1.0,1.0*30
$GPRMC,032313.995,A,3958.274,N,08252.240,W,038.9,090.7,131218,000.0,W*64
$GPGGA,032314.995,3958.274,N,08252.226,W,1,12,1.0,0.0,M,0.0,M,,*73
$GPGSA,A,3,01,02,03,04,05,06,07,08,09,10,11,12,1.0,1.0,1.0*30
$GPRMC,032314.995,A,3958.274,N,08252.226,W,038.9,090.7,131218,000.0,W*63
$GPGGA,032315.995,3958.274,N,08252.212,W,1,12,1.0,0.0,M,0.0,M,,*75
$GPGSA,A,3,01,02,03,04,05,06,07,08,09,10,11,12,1.0,1.0,1.0*30
$GPRMC,032315.995,A,3958.274,N,08252.212,W,038.9,107.4,131218,000.0,W*69
$GPGGA,032316.995,3958.270,N,08252.199,W,1,12,1.0,0.0,M,0.0,M,,*72
$GPGSA,A,3,01,02,03,04,05,06,07,08,09,10,11,12,1.0,1.0,1.0*30
$GPRMC,032316.995,A,3958.270,N,08252.199,W,038.9,107.4,131218,000.0,W*6E
$GPGGA,032317.995,3958.266,N,08252.186,W,1,12,1.0,0.0,M,0.0,M,,*7A
$GPGSA,A,3,01,02,03,04,05,06,07,08,09,10,11,12,1.0,1.0,1.0*30
$GPRMC,032317.995,A,3958.266,N,08252.186,W,038.9,107.4,131218,000.0,W*66
$GPGGA,032318.995,3958.262,N,08252.173,W,1,12,1.0,0.0,M,0.0,M,,*7B
$GPGSA,A,3,01,02,03,04,05,06,07,08,09,10,11,12,1.0,1.0,1.0*30
$GPRMC,032318.995,A,3958.262,N,08252.173,W,038.9,107.4,131218,000.0,W*67
$GPGGA,032319.995,3958.258,N,08252.160,W,1,12,1.0,0.0,M,0.0,M,,*71
$GPGSA,A,3,01,02,03,04,05,06,07,08,09,10,11,12,1.0,1.0,1.0*30
$GPRMC,032319.995,A,3958.258,N,08252.160,W,038.9,107.4,131218,000.0,W*6D
$GPGGA,032320.995,3958.254,N,08252.147,W,1,12,1.0,0.0,M,0.0,M,,*72
$GPGSA,A,3,01,02,03,04,05,06,07,08,09,10,11,12,1.0,1.0,1.0*30
$GPRMC,032320.995,A,3958.254,N,08252.147,W,038.9,150.3,131218,000.0,W*6B
$GPGGA,032321.995,3958.244,N,08252.141,W,1,12,1.0,0.0,M,0.0,M,,*74
$GPGSA,A,3,01,02,03,04,05,06,07,08,09,10,11,12,1.0,1.0,1.0*30
$GPRMC,032321.995,A,3958.244,N,08252.141,W,038.9,150.3,131218,000.0,W*6D
$GPGGA,032322.995,3958.234,N,08252.136,W,1,12,1.0,0.0,M,0.0,M,,*70
$GPGSA,A,3,01,02,03,04,05,06,07,08,09,10,11,12,1.0,1.0,1.0*30
$GPRMC,032322.995,A,3958.234,N,08252.136,W,038.9,150.3,131218,000.0,W*69
$GPGGA,032323.995,3958.224,N,08252.130,W,1,12,1.0,0.0,M,0.0,M,,*76
$GPGSA,A,3,01,02,03,04,05,06,07,08,09,10,11,12,1.0,1.0,1.0*30
$GPRMC,032323.995,A,3958.224,N,08252.130,W,038.9,150.3,131218,000.0,W*6F
$GPGGA,032324.995,3958.214,N,08252.124,W,1,12,1.0,0.0,M,0.0,M,,*77
$GPGSA,A,3,01,02,03,04,05,06,07,08,09,10,11,12,1.0,1.0,1.0*30
$GPRMC,032324.995,A,3958.214,N,08252.124,W,038.9,150.3,131218,000.0,W*6E
$GPGGA,032325.995,3958.204,N,08252.119,W,1,12,1.0,0.0,M,0.0,M,,*79
$GPGSA,A,3,01,02,03,04,05,06,07,08,09,10,11,12,1.0,1.0,1.0*30
$GPRMC,032325.995,A,3958.204,N,08252.119,W,038.9,150.3,131218,000.0,W*60
$GPGGA,032326.995,3958.194,N,08252.113,W,1,12,1.0,0.0,M,0.0,M,,*7A
$GPGSA,A,3,01,02,03,04,05,06,07,08,09,10,11,12,1.0,1.0,1.0*30
$GPRMC,032326.995,A,3958.194,N,08252.113,W,038.9,150.3,131218,000.0,W*63
$GPGGA,032327.995,3958.185,N,08252.107,W,1,12,1.0,0.0,M,0.0,M,,*7E
$GPGSA,A,3,01,02,03,04,05,06,07,08,09,10,11,12,1.0,1.0,1.0*30
$GPRMC,032327.995,A,3958.185,N,08252.107,W,038.9,150.3,131218,000.0,W*67
$GPGGA,032328.995,3958.175,N,08252.102,W,1,12,1.0,0.0,M,0.0,M,,*7B
$GPGSA,A,3,01,02,03,04,05,06,07,08,09,10,11,12,1.0,1.0,1.0*30
$GPRMC,032328.995,A,3958.175,N,08252.102,W,038.9,150.6,131218,000.0,W*67
$GPGGA,032329.995,3958.165,N,08252.096,W,1,12,1.0,0.0,M,0.0,M,,*77
$GPGSA,A,3,01,02,03,04,05,06,07,08,09,10,11,12,1.0,1.0,1.0*30
$GPRMC,032329.995,A,3958.165,N,08252.096,W,038.9,150.6,131218,000.0,W*6B
$GPGGA,032330.995,3958.155,N,08252.090,W,1,12,1.0,0.0,M,0.0,M,,*7A
$GPGSA,A,3,01,02,03,04,05,06,07,08,09,10,11,12,1.0,1.0,1.0*30
$GPRMC,032330.995,A,3958.155,N,08252.090,W,038.9,150.6,131218,000.0,W*66
$GPGGA,032331.995,3958.145,N,08252.085,W,1,12,1.0,0.0,M,0.0,M,,*7E
$GPGSA,A,3,01,02,03,04,05,06,07,08,09,10,11,12,1.0,1.0,1.0*30
$GPRMC,032331.995,A,3958.145,N,08252.085,W,038.9,150.6,131218,000.0,W*62
$GPGGA,032332.995,3958.135,N,08252.079,W,1,12,1.0,0.0,M,0.0,M,,*79
$GPGSA,A,3,01,02,03,04,05,06,07,08,09,10,11,12,1.0,1.0,1.0*30
$GPRMC,032332.995,A,3958.135,N,08252.079,W,038.9,150.6,131218,000.0,W*65
$GPGGA,032333.995,3958.125,N,08252.074,W,1,12,1.0,0.0,M,0.0,M,,*74
$GPGSA,A,3,01,02,03,04,05,06,07,08,09,10,11,12,1.0,1.0,1.0*30
$GPRMC,032333.995,A,3958.125,N,08252.074,W,038.9,150.6,131218,000.0,W*68
$GPGGA,032334.995,3958.115,N,08252.068,W,1,12,1.0,0.0,M,0.0,M,,*7D
$GPGSA,A,3,01,02,03,04,05,06,07,08,09,10,11,12,1.0,1.0,1.0*30
$GPRMC,032334.995,A,3958.115,N,08252.068,W,038.9,150.6,131218,000.0,W*61
$GPGGA,032335.995,3958.105,N,08252.062,W,1,12,1.0,0.0,M,0.0,M,,*77
$GPGSA,A,3,01,02,03,04,05,06,07,08,09,10,11,12,1.0,1.0,1.0*30
$GPRMC,032335.995,A,3958.105,N,08252.062,W,038.9,150.6,131218,000.0,W*6B
$GPGGA,032336.995,3958.095,N,08252.057,W,1,12,1.0,0.0,M,0.0,M,,*7A
$GPGSA,A,3,01,02,03,04,05,06,07,08,09,10,11,12,1.0,1.0,1.0*30
$GPRMC,032336.995,A,3958.095,N,08252.057,W,038.9,150.6,131218,000.0,W*66
$GPGGA,032337.995,3958.086,N,08252.051,W,1,12,1.0,0.0,M,0.0,M,,*7F
$GPGSA,A,3,01,02,03,04,05,06,07,08,09,10,11,12,1.0,1.0,1.0*30
$GPRMC,032337.995,A,3958.086,N,08252.051,W,038.9,126.3,131218,000.0,W*67
